"CODI","NOM","CARRER","NUMERO_CARRER","X_ETRS89","Y_ETRS89","LATITUD","LONGITUD"
"01-004","Sant Carles","C COMTE DE SANTA CLARA","11","432182.782442075","4581164.507911981","41.379145587","2.188964950"
"01-005","C. Carbonell","C CARBONELL","9","432076.454299366","4581430.619126230","41.381533411","2.187663654"
"01-006","Balboa","C BALBOA","9","432109.474876213","4581499.838982364","41.382159643","2.188050773"
"01-007","Ocata","C MARQUESA","13","431886.355669788","4581649.640902184","41.383490009","2.185365757"
"01-008","costat llac","PARC CIUTADELLA","20.I","432013.030517583","4582261.850880304","41.389014731","2.186811930"
"01-009","davant cascada","PG JOAQUIM RENART","20-10","431939.550708623","4582301.911498010","41.389369331","2.185928626"
"01-011","entre Hivernacle i museu","PG PICASSO","12.I","431788.328926762","4582098.182331624","41.387521591","2.184142978"
"01-013","Magdalenes","C CAPELLANS","20-18","430985.475957263","4581870.748064657","41.385404679","2.174567181"
"01-015","biblioteca","PAS INSTITUT ESCOLA","16.I","432031.819506766","4582125.030528692","41.387784016","2.187051993"
"01-016","","PL DUC DE MEDINACELI","1-1.B","431322.600569497","4581092.984318751","41.378428435","2.178687034"
"01-017","Santa Madrona","C MONTSERRAT","12-14","431045.678783949","4580914.326142563","41.376795630","2.175395981"
"01-018","Hotel Rivoli","C LA RAMBLA","128","430691.524455204","4581732.960080656","41.384138393","2.171067554"
"01-019","magatzems Sepu","C LA RAMBLA","120","430722.414002023","4581667.029745780","41.383547239","2.171444495"
"01-022","Salvador Seguí","PL SALVADOR SEGUÍ","16-17","430670.450007958","4581151.939350426","41.378903501","2.170882002"
"01-023","Peu de la Creu","C PEU DE LA CREU","32","430285.160829166","4581338.602555836","41.380551428","2.166253290"
"01-026","Dames","C DAMES","6","431701.245534812","4581669.512334768","41.383653292","2.183149829"
"01-027","Mestrança / Meer","C MEER","18","432261.071887389","4581075.567182147","41.378351115","2.189911075"
"01-031","","PG PICASSO","44-42","431889.437565860","4581898.551260275","41.385732137","2.185374631"
"01-032","Fusteria","PL ANTONIO LOPEZ","1","431550.293334877","4581410.663081331","41.381309081","2.181373864"
"01-033","Comerç","PLTA COMERÇ","4","431544.060388328","4582340.134551445","41.389680033","2.181194307"
"01-034","Pons i Clerch, Pl","PL PONS I CLERCH","3","431596.508035469","4582019.893664625","41.386800178","2.181857736"
"01-037","Reina Amalia","C REINA AMALIA","33","430370.257686339","4580907.551250265","41.376676451","2.167320415"
"01-038","Rda. Sant Pau","C LLEIALTAT","24-16","430289.117390717","4580885.191830846","41.376468041","2.166352755"
"01-039","Paral·lel","C ARC DEL TEATRE","64-62","430821.576956506","4580719.407541238","41.375020821","2.172738527"
"01-040","davant Parlament","PAS INSTITUT ESCOLA","18.I","432165.249487757","4582095.429472910","41.387528670","2.188651072"
"01-044","C. Judici","C JUDICI","1","432177.980151930","4580863.957486033","41.376438202","2.188941156"
"01-045","Trafalgar","C MENDEZ NUÑEZ","15","431232.990159090","4582373.226957792","41.389951552","2.177470187"
"01-046","Tapineria","PL RAMON BERENGUER EL GRAN","2","431227.715568932","4581770.336076071","41.384521043","2.177475545"
"01-051","Roviralta / font Canaletes","C LA RAMBLA","131","430617.925203860","4581846.470811789","41.385154405","2.170174394"
"01-052","Santa Anna","C SANTA ANNA","39","430793.186262893","4581950.119642595","41.386103034","2.172258506"
"01-053","centre plaça","PL SANT AGUSTI VELL","5","431487.948811547","4582144.084676771","41.387909492","2.180545392"
"01-054","centre plaça","PL BARCELONETA","4","432113.452844718","4581231.608540304","41.379744098","2.188128392"
"01-055","Hospital","PL PEDRO","9","430264.469915000","4581222.502534787","41.379503959","2.166019224"
"01-057","centre plaça","PL SANT PERE","15-16","431357.629973528","4582323.465937861","41.389514016","2.178966509"
"01-058","davant nº6 C/ Baix de Sant Pere","C BASSES DE SANT PERE","8","431450.539234985","4582207.405056890","41.388476613","2.180090825"
"01-061","Estafeta Correos","PL BONSUCCES","2.B","430570.994093790","4581709.960958580","41.383920854","2.169628786"
"01-062","Paral·lel","C NOU DE LA RAMBLA","108","430618.486762393","4580735.269104647","41.375146197","2.170308327"
"01-063","Museu de Cera","PTGE BANCA","4","431157.829206874","4580947.155343212","41.377100915","2.176733292"
"01-064","Reial, Pl","C LA RAMBLA","54","430965.111332503","4581266.237293125","41.379958283","2.174392510"
"01-065","centre plaça","PL TRAGINERS","3","431422.393878671","4581508.264199893","41.382177255","2.179833351"
"01-066","Ciutat","PL REGOMIR","1","431325.273303867","4581452.374849942","41.381665592","2.178678268"
"01-067","","C BOT","23-25","430764.724869302","4581772.539586670","41.384501176","2.171938424"
"01-068","Flassaders","PG BORN","19","431673.576456525","4581796.442738825","41.384794169","2.182804626"
"01-070","Carders / Boira","PL SANT AGUSTI VELL","17","431492.988589053","4582113.784592271","41.387637017","2.180609092"
"01-074","Valldonzella","C JOAQUIN COSTA","33.B","430178.812966623","4581641.513826423","41.383270432","2.164946662"
"01-075","Ferlandina","C LLEO","1.B","430195.251779718","4581481.993457355","41.381835109","2.165161625"
"01-077","Moll","PLA MIQUEL TARRADELL","50-51","432095.970703655","4580953.278244792","41.377235775","2.187950523"
"01-078","Egipciaques","C CARME","51","430489.401803927","4581425.241141006","41.381349426","2.168685702"
"01-079","Comerç","PL CANONGE COLOM","61","430663.401427306","4581340.199692416","41.380598497","2.170776177"
"01-082","","C NOU DE LA RAMBLA","48","430819.129046150","4580995.017983099","41.377502953","2.172677801"
"01-083","Penedides / Santa Margarida","C UNIO","32","430838.400428472","4581173.058110262","41.379108164","2.172887924"
"01-084","","C VERDAGUER I CALLIS","12","431103.317542094","4582055.297454231","41.387076960","2.175955472"
"01-085","","C MESTRES CASALS MARTORELL","27","431277.258146005","4582099.366204141","41.387488753","2.178030698"
"01-087","La Rambla, 80","C LA RAMBLA","3","430892.152267111","4581404.118057251","41.381193871","2.173504336"
"01-089","Av. Portal de lÀngel","C CUCURULLA","6","430953.475169250","4581773.568158402","41.384526663","2.174195556"
"01-091","Lledo / Sant Just","PL SANT JUST","4.B","431310.154312502","4581588.205172659","41.382887686","2.178482072"
"01-092","Boixadors","PL SANTA MARIA","16","431569.905188026","4581650.583300621","41.383471643","2.181581295"
"01-093","Floristes Rambles","C FLORISTES DE LA RAMBLA","8.B","430609.452134923","4581444.330260674","41.381531718","2.170119117"
"01-094","","PL SANT MIQUEL","2","431170.423373520","4581493.066085397","41.382018854","2.176821887"
"01-095","Moll","PG JOAN DE BORBO COMTE DE BARCELONA","40-41","432072.191424630","4581053.038578383","41.378132283","2.187654999"
"01-096","Central","PG JOAN DE BORBO COMTE DE BARCELONA","2-2.A","431980.433984949","4581408.749819999","41.381328328","2.186517858"
"01-097","Moll","PG JOAN DE BORBO COMTE DE BARCELONA","21","432024.512593206","4581216.579190958","41.379601224","2.187066522"
"01-099","Interior Parc Zoologic","PG CIRCUMVAL·LACIÓ","42-2","432217.478092932","4581901.268779982","41.385784320","2.189297425"
"01-104","La Rambla","C PORTAFERRISA","2","430762.633645901","4581611.969356817","41.383054790","2.171931763"
"01-109","L'Abat Safont","C ABAT SAFONT","4-2","430573.956889364","4580761.069481732","41.375374733","2.169772920"
"01-110","Almirall Aixada","C PESCADORS","53-55","432221.771077604","4580976.937328147","41.377459472","2.189452152"
"01-118","","PG LLUIS COMPANYS","12","431659.220788175","4582369.333723946","41.389952814","2.182568318"
"01-121","Pelai","C PELAI","9-10","430170.145127268","4581927.574329603","41.385846134","2.164810037"
"01-124","","PL PALAU","15","431773.254965823","4581579.981652065","41.382853024","2.184021055"
"01-125","frente Pl. Pau Vila","MDOR PORT VELL","3","431693.072603350","4581285.321807355","41.380192301","2.183095398"
"01-126","Hospital del Mar","PG MARITIM DE LA BARCELONETA","23-31","432657.196203887","4581563.354931341","41.382777747","2.194593664"
"01-127","","PL PES DE LA PALLA","1","430077.341433293","4581460.254320608","41.381629073","2.163754114"
"01-128","Hospital del Mar","PG MARITIM DE LA BARCELONETA","23-31","432709.187116851","4581672.974705899","41.383769415","2.195203233"
"01-130","Museu Marítim","PL PORTAL DE LA PAU","1","431176.127775137","4580754.924909134","41.375371115","2.176973925"
"01-132","al centre de Mari Santpere","C PORTAL DE SANTA MADRONA","4-2","431123.889228034","4580956.855615277","41.377185379","2.176326350"
"01-134","Sant Pau","RBLA RAVAL","43","430613.009232850","4581061.619647140","41.378085067","2.170205472"
"01-135","Hospital","RBLA RAVAL","4.B-2","430461.390100659","4581206.771018563","41.379379312","2.168375798"
"01-136","","C AGUSTI DURAN I SANPERE","58-50","430453.411730164","4581422.871410062","41.381324972","2.168255593"
"01-137","dins del parc Zoologic","C WELLINGTON","40-18","432269.950299528","4582180.988811000","41.388308103","2.189893678"
"01-138","dins del parc Zoologic","C WELLINGTON","20.I","432180.700782960","4582262.719611922","41.389036710","2.188817133"
"01-139","dins del parc Zoologic","C WELLINGTON","1.B","432129.241624941","4582383.950187001","41.390124259","2.188188109"
"01-141","","PG MARITIM DE LA BARCELONETA","9","432501.323479680","4581236.385609519","41.379819756","2.192766055"
"01-142","Andrea Doria","PG MARITIM DE LA BARCELONETA","11-13","432559.504492500","4581357.905355628","41.380919132","2.193448267"
"01-143","Próxim a Iglesia Castrense","PAS INSTITUT ESCOLA","18.I","432087.609033179","4582051.379993450","41.387125378","2.187727468"
"01-144","C. Fonollar","C FONOLLAR","2","431443.027685131","4582005.004804300","41.386653013","2.180023894"
"01-145","","C COLOMINES","4","431350.576726039","4581897.605340227","41.385677813","2.178930413"
"01-147","","C WELLINGTON","1","432349.569640832","4582078.148050606","41.387388544","2.190857383"
"01-148","","PARC CIUTADELLA","20.I","432109.480432287","4582231.040102784","41.388745373","2.187968903"
"01-149","Pou de la Figuera","C JAUME GIRALT","34-32","431399.318276552","4582091.715267967","41.387430262","2.179491340"
"01-150","Pg Marítim de la Barceloneta / C. Gas","PG MARITIM DE LA BARCELONETA","15-21","432611.175852744","4581526.475223251","41.382441728","2.194047424"
"01-151","Darrera Gran Cascada","PARC CIUTADELLA","50","432043.721383439","4582369.540812565","41.389987257","2.187166904"
"01-152","","C TAPINERIA","1","431134.135652093","4581800.326830834","41.384783155","2.176353020"
"01-153","Entrada Parc de la Ciutadella (Zoo)","JARD FONTSERE I MESTRE","46","431922.947713200","4581911.131025743","41.385848276","2.185773971"
"01-154","","PL CASTELLA","8","430167.224270964","4581815.494180555","41.384836411","2.164788025"
"01-156","","C BALUARD","32-30","432169.003448697","4581299.828224318","41.380363220","2.188785035"
"01-157","Pl. Pijoan","C JOSEP PIJOAN","5","431189.390857425","4581158.015427848","41.379002772","2.177086753"
"01-158","Pl. Vicenç Martorell","C RAMELLERES","17-17.B","430510.924247355","4581742.411463283","41.384207939","2.168906701"
"01-159","Andrea Doria cantonada Miquel Boera","C ANDREA DORIA","32","432449.534146008","4581334.626152821","41.380700237","2.192135802"
"01-160","","C DOCTOR AIGUADER","1-21","432054.755757589","4581626.969591890","41.383300055","2.187382157"
"01-161","","PL LLAGUT","25.L","432256.804379884","4581404.567720129","41.381313978","2.189823268"
"01-162","","PL CARAMELLES","7","430395.482463471","4581531.192014774","41.382295573","2.167550414"
"01-163","Plaça Comerç","C COMERÇ","31","431815.286651427","4581793.281660636","41.384777722","2.184499694"
"01-164","","PL HILARI SALVADO","42","432399.483023952","4581197.076320508","41.379457157","2.191552620"
"01-165","","C GINEBRA","43","432334.615403386","4581523.487313357","41.382391604","2.190740483"
"01-166","","C SOTS-TINENT NAVARRO","16","431397.474375336","4581578.704496633","41.382809566","2.179527376"
"01-167","","JARD VOLTES D'EN CIRES","23-39","430867.338678933","4580936.847528490","41.376983172","2.173260909"
"01-168","Plaça del Poeta Boscà","PL POETA BOSCA","54","432221.412694570","4581189.897658375","41.379377521","2.189424051"
"01-169","Pl. de la Mercè","Pl. de la Mercè","","431388.171220953","4581165.393933143","41.379086202","2.179462919"
"01-170","","Pg. Circumval·lació","1","431959.987417125","4581864.640674001","41.385432684","2.186222158"
"01-171","Al costat del C/ Arenes","Plaça George Orwell","5","431211.032262138","4581338.515540815","41.380630335","2.177325052"
"01-172","","Jonqueres","2","430971.007757878","4582110.618540930","41.387563877","2.174366823"
"01-173","Jardins del Pou de la Figuera","Metge","18","431352.978702735","4582157.215719070","41.388016252","2.178929721"
"02-002","Viladomat","C VILADOMAT","284","428600.444956255","4582223.406720940","41.388372799","2.146002976"
"02-003","Sarrià, Av","C COMTE D'URGELL","238","428801.486358947","4582367.175411427","41.389685490","2.148390442"
"02-004","Urgell","C ROSSELLO","143","428998.325593367","4582226.443698918","41.388435370","2.150761094"
"02-005","Urgell","C PROVENÇA","125","429077.934961491","4582127.122941488","41.387547847","2.151724816"
"02-006","Provença","C CALABRIA","208","428807.812165327","4581813.904516610","41.384702941","2.148531116"
"02-007","Entença","C PROVENÇA","56","428623.290659212","4581653.085673494","41.383238154","2.146343391"
"02-008","València","C COMTE BORRELL","184.B","429149.972904760","4581841.801956973","41.384984410","2.152619715"
"02-009","Londres","C LONDRES","99","428965.859663105","4582768.574773824","41.393315280","2.150309236"
"02-010","Calabria","C ARAGO","99","429046.660335189","4581524.502256502","41.382117498","2.151421362"
"02-011","Rocafort","C CONSELL DE CENT","101","429085.358966240","4581336.421673702","41.380426934","2.151906146"
"02-012","Entença","C CONSELL DE CENT","80","428958.878070445","4581244.122493796","41.379584470","2.150404494"
"02-013","Vilamarí","C ARAGO","39","428780.327726748","4581235.083837640","41.379487278","2.148270462"
"02-014","Diputació","C CALABRIA","119-121","429232.599289117","4581349.080573488","41.380553912","2.153665384"
"02-015","Viladomat","C CONSELL DE CENT","149","429266.070830083","4581545.160619625","41.382322881","2.154042753"
"02-016","Vilamarí","C DIPUTACIO","24","428988.646817528","4581073.102004742","41.378046776","2.150780506"
"02-017","Sepúlveda","C VILAMARI","23","429151.815512710","4580868.200449191","41.376215680","2.152755574"
"02-018","Entença","C FLORIDABLANCA","57","429384.245757011","4580853.288659171","41.376101804","2.155536559"
"02-019","Rocafort","C TAMARIT","109","429532.745941523","4580847.517521335","41.376062843","2.157312895"
"02-021","Floridablanca","C VILADOMAT","81-83","429630.988298506","4581137.957220387","41.378687335","2.158453891"
"02-022","Viladomat","C VILADOMAT","39","429838.886971874","4580921.225307156","41.376753455","2.160964993"
"02-023","Tamarit","C COMTE BORRELL","79","429846.748455662","4581114.975544715","41.378499186","2.161036571"
"02-024","Sepúlveda","C CASANOVA","20","429959.342250735","4581591.715419080","41.382802837","2.162327842"
"02-025","Diputació","C COMTE BORRELL","151","429451.640871489","4581512.999159176","41.382049507","2.156265630"
"02-026","Aribau","C DIPUTACIO","207","429899.145149958","4581985.426478932","41.386343619","2.161562419"
"02-027","València","C MUNTANER","90","429571.366112107","4582178.449266794","41.388053479","2.157620001"
"02-028","Enric Granados","C MALLORCA","210-208","429630.438293208","4582453.449237297","41.390535478","2.158294529"
"02-029","Aribau","C MALLORCA","195","429524.967477610","4582367.529908457","41.389752399","2.157043097"
"02-030","Enric Granados","C ROSSELLO","180-178","429442.519451553","4582643.960957396","41.392234887","2.156024831"
"02-031","Rosselló","C MUNTANER","156","429286.707949467","4582477.951889427","41.390726019","2.154180664"
"02-032","Doctor Letamendi / costat mar","PL DOCTOR LETAMENDI","35","429863.227255265","4582269.707186239","41.388900909","2.161099956"
"02-034","Córsega","C BALMES","145","429467.030967479","4582838.411067306","41.393988380","2.156295350"
"02-035","Rambla Catalunya","C MALLORCA","238","429856.600318816","4582674.067853256","41.392542270","2.160973873"
"02-036","Pau Claris / Passeig de Gràcia","C PROVENÇA","298-296","429951.272616907","4582957.137564010","41.395100032","2.162073445"
"02-037","València","C ROGER DE LLURIA","87","430287.103144229","4582958.375012670","41.395140360","2.166090115"
"02-038","Rambla Catalunya","C DIPUTACIO","253","430226.418127942","4582310.954486788","41.389303997","2.165438857"
"02-040","davant boca metro central","PL CATALUNYA","9","430566.166683561","4582051.711517471","41.386998478","2.169531890"
"02-041","Casp","C BRUC","29","430902.870729910","4582515.479674965","41.391204486","2.173505757"
"02-043","Sant Joan, Pg","PL TETUAN","1","431151.173439054","4582821.318260769","41.393980373","2.176440728"
"02-044","Bruc","C DIPUTACIO","321","430700.402361416","4582771.281598091","41.393490992","2.171054937"
"02-045","Consell de Cent","C GIRONA","73","430702.943483748","4582918.371802751","41.394816005","2.171068499"
"02-046","Roger de Flor","C ROGER DE FLOR","424","430995.876217715","4583218.320040893","41.397542731","2.174538031"
"02-047","Consell de Cent","C NAPOLS","180","431091.317057983","4583309.409456755","41.398371329","2.175669262"
"02-048","Pg. Sant Joan","PG SANT JOAN","89","430666.286494881","4583321.792693648","41.398446324","2.170583860"
"02-049","Roger de Flor","JARD CONSTANÇA D' ARAGÓ","377","430884.336954204","4583337.841067064","41.398609639","2.173190232"
"02-050","Nàpols","C MALLORCA","360","430787.058642856","4583579.642170720","41.400779094","2.171998994"
"02-051","Provença / Rosselló","C ROGER DE FLOR","213-215","430548.648790793","4583647.574078743","41.401370375","2.169139368"
"02-052","Padilla","C INDUSTRIA","138","430906.395641842","4584475.342624016","41.408856631","2.173324243"
"02-053","Cartagena","C INDUSTRIA","171-173","431097.567340940","4584659.801455991","41.410534400","2.175590301"
"02-054","Cartagena","C MALLORCA","496","431483.144954439","4584267.927945108","41.407037884","2.180247608"
"02-055","Sardenya","C MALLORCA","406","431002.590603439","4583793.580863596","41.402724494","2.174552782"
"02-056","Lepant","C ENAMORATS","9","431430.380663802","4583714.627505461","41.402049986","2.179679066"
"02-057","Diagonal","C PADILLA","186-172","431568.121108321","4583745.106509092","41.402336236","2.181323294"
"02-058","Gran Via de les Corts Catalanes","C CASTILLEJOS","175","431814.911063815","4583689.174556074","41.401853442","2.184281748"
"02-059","Sardenya","C DIPUTACIO","429-431","431336.448131500","4583400.757739744","41.399215044","2.178591030"
"02-060","Casp","C SARDENYA","172.B","431572.766738314","4583169.555598928","41.397152823","2.181443917"
"02-061","Carles I","C AUSIAS MARC","149","431721.637048318","4583180.094487892","41.397260398","2.183223405"
"02-063","Provença","C ARIBAU","113","429428.388303699","4582495.810838904","41.390899312","2.155873081"
"02-064","Borrell, 324","C COMTE BORRELL","324","428511.796669618","4582466.937767780","41.390558317","2.144914042"
"02-065","Casanova davant bombers","PL DOCTOR FERRER I CAJIGAL","154","429214.556860939","4582349.362241929","41.389561511","2.153332765"
"02-067","Vilamarí","C VILAMARI","89-99","428601.929071699","4581448.395521866","41.381392689","2.146112054"
"02-068","Diputació","C PAU CLARIS","107","430472.930523339","4582575.833023133","41.391711018","2.168356686"
"02-069","Bailen","C DIPUTACIO","324","430862.803686874","4582912.560583361","41.394777424","2.172981219"
"02-070","Consell de Cent (gasolinera)","C SARDENYA","225-227","431241.868797412","4583507.528618012","41.400168613","2.177447582"
"02-071","Sant Antoni Maria Claret","C LEPANT","353","430725.865078884","4584438.033933981","41.408505067","2.171168759"
"02-072","Padilla","C ROSSELLO","475","431099.944522985","4584289.000877266","41.407194928","2.175660959"
"02-073","Provença / Lepant / Padilla","PL GAUDÍ","445-447","431052.402303149","4584006.890809896","41.404649980","2.175124345"
"02-074","Provença (gronxadors) / Av Gaudí","PL GAUDÍ","5","431121.002279664","4583989.870264839","41.404502562","2.175946917"
"02-075","Padilla","C MALLORCA","456-454","431295.733261284","4584083.419084034","41.405360078","2.178026535"
"02-076","Parc del Nord","PARC ESTACIÓ DEL NORD","SN","431690.793287814","4582691.753977130","41.392859441","2.182909560"
"02-078","Pg Sant joan","C DIPUTACIO","357","430991.334969348","4583055.079826993","41.396072089","2.174502315"
"02-079","Rda Sant Pau","C MANSO","78","430018.898677981","4581109.414227378","41.378464088","2.163095748"
"02-080","Floridablanca","C VILLARROEL","17","429937.260699991","4581392.085281316","41.381002911","2.162086860"
"02-081","Villarroel","C DIPUTACIO","159","429653.742947714","4581745.327978058","41.384159711","2.158655479"
"02-082","Muntaner","C CONSELL DE CENT","232","429725.284986351","4581999.117822109","41.386451763","2.159481600"
"02-083","Consell de Cent","C ENRIC GRANADOS","15-17","429941.246762551","4582189.076469761","41.388181495","2.162042370"
"02-084","Consell de Cent","C ROGER DE LLURIA","49","430486.691809471","4582742.193172262","41.393210559","2.168502180"
"02-085","Pg. St. Joan 65","PG SANT JOAN","65","430797.075644047","4583183.311492921","41.397210336","2.172164117"
"02-086","València","C MARINA","235","431186.540764391","4583777.369446510","41.402594249","2.176755086"
"02-087","Girona","C CASP","47","430966.821579624","4582614.239341227","41.392099475","2.174259362"
"02-088","València","C VALENCIA","352","430596.465485714","4583203.303042308","41.397373104","2.169762280"
"02-089","Aragó","C BRUC","100","430480.213518492","4582968.273565326","41.395246230","2.168398743"
"02-090","Sardenya","C ALI BEI","111","431761.645885815","4583019.083939750","41.395813620","2.183720107"
"02-091","Casp","C SICILIA","152","431467.705870253","4583076.736253051","41.396307880","2.180197762"
"02-092","Gran Via de les Corts Catalanes","C ROGER DE FLOR","699.A","431147.824998290","4583027.068599441","41.395833215","2.176377285"
"02-093","Consell de Cent","C CONSELL DE CENT","546","431667.052238321","4583873.585955285","41.403501825","2.182492225"
"02-094","Provença / Mallorca","PL SAGRADA FAMILIA","235","430846.790059837","4583753.781982683","41.402352653","2.172693602"
"02-095","Provença / Mallorca","PL SAGRADA FAMILIA","15","430890.940784131","4583840.021779210","41.403133183","2.173211896"
"02-096","València","C GIRONA","110","430549.224423077","4583073.183202256","41.396197079","2.169212142"
"02-097","Balmes","C PROVENÇA","213","429662.650136100","4582689.359351980","41.392663056","2.158652385"
"02-098","Balmes","C ARAGO","236","429950.648258092","4582383.926695574","41.389937264","2.162132275"
"02-102","València","C VILLARROEL","131","429332.694556392","4582022.120843170","41.386624551","2.154783841"
"02-105","","JARD MONTSERRAT","233","428593.932248868","4581868.336226788","41.385174232","2.145966938"
"02-106","Calabria","C LONDRES","12-10","428432.484615773","4582212.727982314","41.388261693","2.143995509"
"02-107","Passadís central","PARC JOAN MIRO","2","428746.746868558","4581128.883929819","41.378527800","2.147881391"
"02-108","Passadís central","PARC JOAN MIRO","2","428782.266652187","4581093.183604859","41.378209404","2.148310322"
"02-109","zona pipican (gossos)","C DIPUTACIO","12","428882.426442489","4581045.252769599","41.377786566","2.149513626"
"02-110","caseta","PARC JOAN MIRO","4","428845.846048026","4581000.722979286","41.377382268","2.149081440"
"02-112","Sepúlveda","C CALABRIA","82-80","429481.937967410","4581124.548333062","41.378553517","2.156673137"
"02-113","Comte Borrell","C COMTE BORRELL","117","429646.079830478","4581336.577410263","41.380477561","2.158611295"
"02-114","Parlament","C CALABRIA","6-2","429824.375826095","4580773.305190301","41.375419920","2.160808602"
"02-115","Aragó","C COMTE D'URGELL","132","429345.673192241","4581839.950465753","41.384984946","2.154960300"
"02-116","València","C ROCAFORT","165","428891.800143054","4581530.623443581","41.382158958","2.149568762"
"02-118","Rosselló","C GIRONA","161","430231.216320300","4583387.366087904","41.398999289","2.165372232"
"02-124","Ribes 1-3","C RIBES","1","431554.592941909","4582673.924981259","41.392687281","2.181282555"
"02-128","Paral·lel","RDA SANT PAU","1","430380.976453433","4580743.050916525","41.375195774","2.167467478"
"02-129","Pau Claris","C PAU CLARIS","650","430626.389756790","4582443.751659560","41.390534655","2.170207222"
"02-130","cantonada Rambla Catalunya","G.V. CORTS CATALANES","630","430394.537954319","4582253.863126068","41.388804359","2.167456093"
"02-131","Castillejos","C CASTILLEJOS","183.B","431753.521766589","4583794.025180005","41.402792591","2.183535581"
"02-132","Pça Tetuan","PL TETUAN","30","431083.244343079","4582954.028977256","41.395169838","2.175613148"
"02-133","Diagonal","C PROVENÇA","338","430233.815201166","4583239.695843928","41.397669500","2.165420334"
"02-134","Pau Claris","C PAU CLARIS","187","429928.494079699","4583154.128036893","41.396872273","2.161778199"
"02-136","Córsega","C CORSEGA","310-306","429653.712957697","4583062.309987892","41.396021309","2.158502170"
"02-137","","PL URQUINAONA","3","430852.018916317","4582287.249711904","41.389144520","2.172923617"
"02-139","Enric Granados","PL DOCTOR LETAMENDI","25","429812.167523527","4582315.347644257","41.389307524","2.160484009"
"02-140","Av Roma","C ARAGO","150-148","429461.074111358","4581937.519737364","41.385873846","2.156329015"
"02-141","Casanova (costat Diagonal)","C BUENOS AIRES","60","428810.759506492","4582779.485970534","41.393399839","2.148452885"
"02-142","Cine Comedia","JARD REINA VICTORIA","609","430427.918539036","4582323.982980176","41.389438794","2.167847261"
"02-144","Ronda Sant Pau","C MARQUES DE CAMPO SAGRADO","35","430189.827544805","4580925.682646109","41.376824122","2.165160841"
"02-145","Parlament","C COMTE BORRELL","34","430046.787418874","4580938.023752440","41.376922853","2.163449017"
"02-146","Rocafort","C ROCAFORT","446-444","429271.367603717","4581119.319926067","41.378487945","2.154155795"
"02-147","Gran Via de les Corts Catalanes","C VILADOMAT","118","429489.459359279","4581306.268554680","41.380190869","2.156741934"
"02-148","Casanova","C CASANOVA","36.B","429862.602888220","4581695.196313058","41.383726428","2.161159000"
"02-149","Sepúlveda / Rda. Sant Antoni","PL GOYA","185","430068.113321586","4581710.624773892","41.383883277","2.163614866"
"02-151","Diagonal","C MALLORCA","332","430505.656355249","4583336.113931639","41.398561444","2.168660845"
"02-152","Bruc","C BRUC","645","430764.351561011","4582652.990933621","41.392431094","2.171833329"
"02-153","Ali Bei","PG SANT JOAN","9","431320.992384761","4582648.116710813","41.392434919","2.178491517"
"02-154","València","C SICILIA","276","431001.279006162","4583583.860555320","41.400835500","2.174560996"
"02-155","Provença (gasolinera)","AV GAUDÍ","4-2","430995.072230531","4584008.991247036","41.404663979","2.174438288"
"02-156","Londres (costat Diagonal)","C ARIBAU","181","429079.140667181","4582877.664078285","41.394307804","2.151651355"
"02-157","Parc","C ENAMORATS","74","431612.453154301","4584005.076568042","41.404681477","2.181824231"
"02-163","costat Estació del Nord","C SARDENYA","97","431831.134754709","4582856.203165342","41.394352494","2.184569601"
"02-164","Sicília","C SICILIA","707","431332.446803978","4583227.007505825","41.397649788","2.178562874"
"02-165","Nàpols","C DIPUTACIO","368","431154.566288648","4583195.388804506","41.397349799","2.176438780"
"02-173","Jardins de la indústria","JARD INDUSTRIA","119-121","430728.774587541","4584372.873813453","41.407918443","2.171211025"
"02-174","Gran Via de les Corts Catalanes","C COMTE D'URGELL","59-61","429607.561354727","4581545.018022569","41.382351547","2.158126473"
"02-176","Roger de Flor (entre Consell de Cent/Diputació)","JARD CARLIT","8","431054.816207008","4583204.929574269","41.397427183","2.175244555"
"02-177","Villarroel (entre Diputació i Gran Via)","JARD CESAR MARTINELL","543-545","429727.982635337","4581689.177327561","41.383660469","2.159549810"
"02-180","Rda. Universitat","PL UNIVERSITAT","9-10","430137.195142783","4581936.284593485","41.385921724","2.164414979"
"02-182","Aragó 455","JARD MANUEL DE PEDROLO","459-463","431469.909758495","4583587.577013283","41.400909052","2.180166302"
"02-183","Diagonal / Lepant costat muntanya","PL HISPANITAT","1","431367.170603301","4583719.507991359","41.402088549","2.178922385"
"02-184","","PG SANT JOAN","121","430451.417899229","4583550.144667127","41.400484457","2.167987486"
"02-186","Paris / Diagonal","C ENRIC GRANADOS","120","429256.100962331","4582880.552736304","41.394349408","2.153767578"
"02-188","València","C VALENCIA","374-372","430790.817488904","4583427.161910797","41.399406078","2.172061388"
"02-189","AV. Josep Tarradellas","C LONDRES","8-2","428389.494392507","4582192.078277745","41.388071883","2.143483808"
"02-190","Mallorca / Provença","PG SANT JOAN","103","430544.987324168","4583455.503815083","41.399640147","2.169117605"
"02-191","Pl Francesc Macià","C JOSEP TARRADELLAS","147","428412.856952808","4582524.328608249","41.391066415","2.143723946"
"02-194","Cartagena, Rosselló, Provença","JARD MONTSERRAT ROIG","496-484","431370.916226792","4584457.919082080","41.408739499","2.178883462"
"02-195","Roger de Llúria (entre Consell de Cent i Diputació)","JARD TORRE DE LES AIGÜES","352","430584.432271361","4582783.042494243","41.393586917","2.169666523"
"02-198","","AV MISTRAL","18","429593.746912271","4580962.987234946","41.377108180","2.158028891"
"02-199","","AV MISTRAL","34-28","429510.526538395","4580930.607817911","41.376809264","2.157037548"
"02-200","","AV MISTRAL","39-43","429459.826268291","4580905.308164502","41.376576955","2.156434246"
"02-201","","AV MISTRAL","48","429321.835687609","4580856.789139031","41.376127853","2.154789894"
"02-202","","AV MISTRAL","71","429240.085305198","4580822.989708588","41.375816248","2.153816323"
"02-203","","AV MISTRAL","66","429187.205089830","4580805.340083476","41.375652633","2.153186083"
"02-204","Marina","C MARINA","778","431555.388096932","4583351.746007715","41.398792277","2.181215451"
"02-205","Rocafort","AV ROMA","55.E","428848.960974822","4581648.823950638","41.383219760","2.149042594"
"02-206","València (llançà)","JARD SAFO","13-15","428609.738363432","4581353.545316838","41.380539101","2.146216614"
"02-207","Paral·lel amb Parlament","JARD TRES TOMBS","31","429836.646497441","4580859.215228974","41.376194755","2.160945381"
"02-209","Aragó / València / Padilla","JARD FLORA TRISTAN","485","431470.312568815","4583956.957570917","41.404235980","2.180129303"
"02-210","Gran Via / Bailen / Girona","JARD JAUME PERICH","659","430882.482987305","4582816.550288163","41.393914382","2.173227558"
"02-211","Gran Via / Bailen / Girona","JARD JAUME PERICH","659","430881.062974464","4582815.150296784","41.393901650","2.173210733"
"02-212","Ausiàs Marc","PL FORT PIENC","3","431637.325733710","4583024.324888988","41.395850265","2.182232520"
"02-213","Costat Corte Inglés","PL CATALUNYA","12-13","430619.687075160","4582092.331174093","41.387368944","2.170167308"
"02-214","Entença","C JOSEP TARRADELLAS","60","428314.171964441","4581887.738384486","41.385324099","2.142619003"
"02-215","Consell de Cent / Diputació / Viladomat","JARD PAULA MONTAL","142.I","429270.880149723","4581454.620444256","41.381507840","2.154110833"
"02-216","Roger de Flor / Ali Bei","CTRA ANTIGA D'HORTA","5-7","431473.233794813","4582802.645793616","41.393839702","2.180294899"
"02-217","Sardenya / Marina / Ali Bei","JARD LINA ÓDENA","131.B-133","431741.186438027","4583095.864211618","41.396503421","2.183466736"
"02-218","","C ENAMORATS","91-93","431703.554454594","4584157.516109678","41.406062197","2.182896843"
"02-219","entre pont Sardenya i Marina","C SARDENYA","69-75","431896.665086829","4582886.582715514","41.394631666","2.185349977"
"02-220","Rosselló / Aribau","PLTA JOAN BROSSA","236","429358.639519496","4582669.921635105","41.392461343","2.155018576"
"02-221","Gran Via / Entença / Rocafort","JARD SEBASTIA GASCH","48","429154.007790901","4581167.750892784","41.378913822","2.152746774"
"02-222","Aragó 305, Bruc","JARD RECTOR OLIVERAS","318","430394.583287229","4582955.294194047","41.395121922","2.167376023"
"02-223","Provença / Viladomat","JARD MARIA MERCÈ MARÇAL","241","428906.103826854","4582012.664073377","41.386501789","2.149683250"
"02-224","Passeig central","AV ROMA","137","429437.674253040","4581960.909951109","41.386082461","2.156046449"
"02-225","Tetuan","JARD DOCTOR ROBERT","30","431078.484106016","4582923.818967307","41.394897338","2.175559650"
"02-226","","AV MISTRAL","12-10","429661.687201511","4580987.316755778","41.377333250","2.158838465"
"02-227","Sepúlveda 90","JARD TETE MONTOLIU","18","429536.098130393","4581135.037937370","41.378652738","2.157319553"
"02-228","Urgell entre Provença/Mallorca","JARD ERMESSENDA DE CARCASSONA","136","429042.794036810","4582012.553033514","41.386512858","2.151317971"
"02-229","","PARC JOAN MIRO","6","428820.956555354","4581072.583279004","41.378027288","2.148775383"
"02-230","Llúria / Còrsega","JARD CARME BIADA","366","430002.805488936","4583324.367730171","41.398412034","2.162647369"
"02-231","Calàbria entre Gran Via i Sepúlveda","JARD MARIA MATILDE ALMEDROS","81","429470.768681679","4581220.848565767","41.379419882","2.156528370"
"02-232","","C VILLARROEL","211","429552.983398397","4581825.058866329","41.384869003","2.157441245"
"02-233","Marina entre Diputació i Consell de Cent","JARD CLOTILDE CERDA","488-486","431343.688791649","4583486.087814611","41.399984203","2.178667964"
"02-235","Comte Borrell 56","C PARLAMENT","47","430028.767999503","4581018.104012296","41.377642544","2.163224305"
"02-236","Roger de Flor / Aragó / València","JARD CONSTANÇA D' ARAGÓ","381","430864.607346784","4583393.471300951","41.399108986","2.172947883"
"02-237","Pau Claris /(entre Provença i Rosselló)","JARD LAURA ALBÉNIZ","258.I","430030.734157344","4583143.607243028","41.396786418","2.163002324"
"02-238","amb Passeig de Gràcia","G.V. CORTS CATALANES","611","430490.698988364","4582370.302575292","41.389861407","2.168592788"
"02-239","València","C VALENCIA","110","429006.741469295","4581681.902801376","41.383531628","2.150925554"
"02-240","Av. Roma (parc infantil)","AV ROMA","87-89","429233.323139719","4581855.821344513","41.385118014","2.153614858"
"02-241","Diagonal amb Aragó (muntanya)","PL PABLO NERUDA","433","431267.389990436","4583659.198655142","41.401536839","2.177735641"
"02-242","","C VILADOMAT","275-279","428607.024250380","4582129.156526657","41.387524506","2.146092769"
"02-243","Ptge. Simó","JARD ENRIQUETA SÉCULI","15","430876.311901432","4583989.862117027","41.404481487","2.173019789"
"02-244","Nàpols entre Provença i Mallorca","JARD BEATRIU DE PROVENÇA","248-254","430783.009270594","4583662.992327834","41.401529453","2.171941026"
"02-245","Sardenya entre Provença i Mallorca","PL SAGRADA FAMILIA","318-314","430906.240774235","4583835.611656702","41.403094777","2.173395423"
"02-246","Rosselló amb Urgell","C VILLARROEL","191.I","428993.496218189","4582309.653862854","41.389184388","2.150693583"
"02-247","Calàbria entre Manso i Tamarit","C CALABRIA","36","429714.146786406","4580922.046256733","41.376749963","2.159473322"
"02-248","Pl. Anaïs Napoleó","JARD ANAÏS NAPOLEON","172.B","431571.767720392","4583298.905803333","41.398317755","2.181417349"
"02-249","","C CORSEGA","195-197","428991.677376200","4582462.414110089","41.390560083","2.150653923"
"02-250","Jardins d'Emma de Barcelona","JARD EMMA DE BARCELONA","156","429358.720996831","4581548.329919918","41.382359566","2.155150337"
"02-251","","C ROGER DE FLOR","191","430614.647907253","4583517.993382495","41.400208984","2.169943701"
"02-252","Jardins de Reina Victòria","Jardins de Reina Victòria","","430422.798206822","4582281.322953896","41.389054126","2.167790923"
"02-253","","Ribes","61","431792.818816941","4583398.224280981","41.399231068","2.184050258"
"02-254","","Girona","48","430846.632694783","4582785.370512164","41.393630474","2.172802326"
"02-255","","Consell de Cent","363","430411.261122374","4582667.183629328","41.392528449","2.167608610"
"02-257","","Consell de Cent","158","429354.501616845","4581630.800078361","41.383101976","2.155090265"
"02-258","","Girona","129","430378.445488387","4583248.024761110","41.397757051","2.167149344"
"02-259","","Consell de Cent","429","430866.355225340","4583114.160863204","41.396593478","2.173000683"
"02-260","","Rocafort","47","429160.488358263","4581241.140956180","41.379575391","2.152815689"
"03-007","Foc amb Mare de Deu del Port","C FOC","110-108","428326.608543329","4578799.163523373","41.357507506","2.143132852"
"03-008","Alts Forns","C MARE DE DEU PORT","277-279","428220.500227492","4579042.734707853","41.359691818","2.141835628"
"03-009","Aviador Duran / Aviador Franco","C AVIADOR FRANCO","1.B","428170.640821833","4579131.205224033","41.360484196","2.141229120"
"03-010","","C ALTS FORNS","29","427718.126974103","4578715.528016685","41.356699840","2.135869109"
"03-011","Bronze / Alts Forns","C ALUMINI","14","427622.246907793","4578726.228761869","41.356787606","2.134721711"
"03-012","","C ENERGIA","11","427750.538480812","4578907.678069211","41.358433378","2.136233665"
"03-013","Sota el pont de vianants","PG ZONA FRANCA","226","427856.902138172","4579368.387976265","41.362592368","2.137450350"
"03-014","Zona Franca","C FONERIA","33-35","427994.730795736","4579163.426610808","41.360758690","2.139122394"
"03-016","Al final del parc (Mineria)","PARC CAN SABATÉ","214-210","427930.202072035","4579344.797382600","41.362386460","2.138329439"
"03-017","Química / Física","C MINERIA","30","427947.774258545","4579629.497690342","41.364952228","2.138505689"
"03-019","","CAMI CADENA","10-4","427791.735568690","4579833.879192899","41.366779038","2.136615876"
"03-020","Bonaventura Pollès","C SALLENT","5","427535.278150312","4580226.271749610","41.370290127","2.133502894"
"03-021","Toledo","C TOLEDO","70-68","427709.757999740","4580170.970337608","41.369807737","2.135595603"
"03-022","Traja","C SANT FRUCTUOS","104-94","428252.087591544","4580007.075961510","41.368380124","2.142099155"
"03-023","sobre escales","C FONT FLORIDA","72-68","428397.607922336","4580021.154877122","41.368519885","2.143837315"
"03-024","Rabi Ruben","C SANT FRUCTUOS","25-27","428668.840896922","4580358.103335471","41.371578746","2.147040512"
"03-025","Amposta","C VALLS","5-9","428766.300477746","4580283.122478960","41.370912051","2.148214594"
"03-027","Farell / Sant Roc","PL JOAN CORRADES","43","428441.591780081","4580520.545313566","41.373021632","2.144304243"
"03-028","Bordeta","C PORTUGALETE","1-3","428350.411668045","4580524.286012545","41.373047211","2.143213585"
"03-029","Vint-i-sis de Gener / Moianes","C LEIVA","7","428219.682134356","4580612.257142113","41.373827886","2.141640072"
"03-032","Mont-ros","C FINLANDIA","4","427725.571323597","4580605.800889048","41.373725515","2.135732833"
"03-033","Jocs Florals","C BURGOS","53","427690.900580016","4580514.861012295","41.372903339","2.135329127"
"03-034","Noguera Pallaresa","C NOGUERA PALLARESA","19","427842.589814439","4580383.149655605","41.371730678","2.137158503"
"03-035","Rosend Arus","C ROSSEND ARUS","81","427981.488891856","4580233.358368241","41.370394003","2.138837039"
"03-037","Esteras","C CARRERAS I CANDI","99-101","427218.298455197","4580330.914321432","41.371204002","2.129700466"
"03-039","Tirso de Molina / Cerdanyola","RIER ESCUDER","51","427374.703177622","4580921.464044075","41.376536984","2.131499747"
"03-041","Juan de Sada","C JUAN DE SADA","94","427052.654269341","4581130.886816245","41.378394042","2.127623700"
"03-042","Sugranyes","C SUGRANYES","2.B","427015.151748102","4580806.276600683","41.375467007","2.127214345"
"03-043","Arizala","C SANTS","314-310","426835.311665319","4580831.998008084","41.375682339","2.125060872"
"03-044","Bonsons","C ESCULTOR CANET","36","426838.179592696","4580558.227563276","41.373216859","2.125128206"
"03-045","Melcior de Palau","C GALILEU","142","427595.096506720","4581315.222974499","41.380103280","2.134088024"
"03-046","Viriat","C ENRIC BARGES","43","428155.217691749","4581357.408779399","41.380533440","2.140780954"
"03-047","Santa Madrona","PG SANTA MADRONA","57-61","429461.630949343","4580204.447072349","41.370264685","2.156537375"
"03-048","Grases","C MARE DE DEU DEL REMEI","41","429463.233212658","4580502.227518770","41.372946838","2.156521887"
"03-050","Creu dels Molers","C CREU DELS MOLERS","25-27","429900.634551877","4580590.104329076","41.373776534","2.161741629"
"03-051","Blai","C BLASCO DE GARAY","10","430014.025165861","4580648.023556176","41.374308063","2.163090745"
"03-052","Blai","C BLAI","10-8","430246.534542324","4580518.871591059","41.373165017","2.165885726"
"03-053","Roser","PL BELLA DORITA","101","430358.426073341","4580697.611017643","41.374784559","2.167203059"
"03-055","Nou de la Rambla","C PIQUER","45","430446.625072313","4580547.810119049","41.373442975","2.168274853"
"03-057","Poeta Cabanyes","C POETA CABANYES","76","430115.783244555","4580374.472362178","41.371853114","2.164339002"
"03-058","Cabanes","PG MONTJUIC","48-46","430548.953875092","4580369.279068954","41.371843835","2.169518838"
"03-060","Onyar","C SEGURA","1","428366.564355404","4579557.334395634","41.364339652","2.143520949"
"03-061","Av. Reina Maria Cristina","AV REINA MARIA CRISTINA","1-13","428868.823148804","4580614.212209859","41.373903131","2.149401545"
"03-065","França Xica / Bòbila","PL DOCTOR PERE FRANQUESA","13","429625.392869759","4580424.256166136","41.372258771","2.158469841"
"03-066","Segons Jocs Mediterranis","C GUARDIA URBANA","12","429246.351831676","4580364.238954899","41.371684983","2.153944796"
"03-069","Parc Can Sabaté (a la meitat del planell)","PARC CAN SABATÉ","10.I","427895.742873654","4579457.477819221","41.363398248","2.137904092"
"03-070","Cicero","C CICERO","2","427888.123781845","4580896.660101521","41.376359757","2.137641844"
"03-071","Sants","C SANT MEDIR","1","427475.582327985","4580788.983072597","41.375352877","2.132721843"
"03-072","Bejar","C CREU COBERTA","46-44","428614.543907215","4580765.674376311","41.375244783","2.146343319"
"03-073","França Xica","C CONCORDIA","11","429663.352795105","4580406.745850651","41.372104380","2.158925746"
"03-074","Margarit","C MARGARIT","33","430035.604071710","4580499.593164007","41.372973073","2.163365895"
"03-076","Davant d'Alpens","C GAVA","33-41","428126.150040583","4580355.367456896","41.371505826","2.140552177"
"03-077","Aliga","C VILARDELL","1","428333.793011155","4580704.606416848","41.374669812","2.142993563"
"03-078","Sant Roc","C VILARDELL","37","428515.493260311","4580700.555029116","41.374649483","2.145166636"
"03-080","Bejar","C CONSELL DE CENT","51","428589.535104904","4580928.504817084","41.376709120","2.146025102"
"03-081","Bejar","C ELISI","30","428436.836294551","4581116.186266898","41.378385934","2.144177061"
"03-082","Ermengarda","C ERMENGARDA","42","428397.445306506","4580994.046378543","41.377282360","2.143720465"
"03-084","Gayarre","C SANT CRIST","19-21","428073.232744244","4580722.348425334","41.374806362","2.139875935"
"03-085","Sants / Masnou","C ESPANYA INDUSTRIAL","4-2","428127.433438980","4580802.868137302","41.375536416","2.140514468"
"03-086","Cros","C CROS","13-17","427919.722195467","4580681.229529166","41.374422285","2.138045293"
"03-089","Autonomia","C PREMIA","36","428007.154361150","4580948.789276687","41.376839923","2.139058939"
"03-090","Munné","C SANTS","409-411","426693.481383306","4580823.729073960","41.375594957","2.123365987"
"03-091","Casteras","C SUGRANYES","49","427139.220449481","4580609.865353875","41.373709251","2.128721457"
"03-095","Entre Melcior de Palau i Béthencourt","C VALLESPIR","61","427808.706705413","4581297.941323285","41.379966824","2.136644432"
"03-096","Valladolid","C VALLESPIR","14","427906.735517965","4581121.590306390","41.378387287","2.137837636"
"03-100","Ricart","AV PARAL·LEL","141","429615.635052886","4580713.726685572","41.374865086","2.158319562"
"03-101","Rades","C LA FRANÇA XICA","4-2","429779.303106120","4580424.254996258","41.372272204","2.160310090"
"03-102","Mata","C PIQUER","20","430646.484761255","4580466.068478658","41.372724000","2.170673903"
"03-110","Jardins de Dolors Aleu","JARD CAN MANTEGA","36","427460.825284199","4581181.493789837","41.378886739","2.132498417"
"03-111","Vallespir","PL CENTRE","2","427737.847995264","4581482.252145662","41.381620480","2.135775128"
"03-113","entrada parc de Can Sabaté","PARC CAN SABATÉ","10.I","427898.913048890","4579479.937829946","41.363600821","2.137939321"
"03-115","Mare de Deu del Remei","C CONCORDIA","40","429743.773658589","4580504.195389308","41.372989101","2.159876013"
"03-116","Hartzenbusch","PL FENIX","18","427629.458243022","4580219.351022888","41.370236268","2.134629756"
"03-118","centre plaça","PL SANTS","7-9","427704.613040660","4580836.311403966","41.375799754","2.135454747"
"03-119","Pça Iberia","PL IBERIA","4","427847.491810334","4580645.160022742","41.374090948","2.137185931"
"03-123","Jaume Fabra","C JAUME FABRA","19","429692.114427773","4580615.935953845","41.373991002","2.159245377"
"03-124","Mare de Deu del Remei","PL SANTA MADRONA","3","429448.063688436","4580567.957735233","41.373537520","2.156332860"
"03-125","Creu Coberta","C MOIANES","80","428304.903265188","4580743.936697104","41.375021473","2.142643476"
"03-126","","C DALIA","18","428636.189186936","4580139.423246254","41.369606275","2.146675851"
"03-127","C/ Callao","PL HERENNI","8","428343.524331673","4580876.586607751","41.376219643","2.143089591"
"03-129","Badal","C CONSTITUCIO","153","427461.906735424","4580054.682041981","41.368738074","2.132646179"
"03-130","","AV MARQUES DE COMILLAS","34","428562.408944339","4580122.413780823","41.369446532","2.145795731"
"03-131","","PL UNIVERS","4-6","429006.532491253","4580499.690986585","41.372883836","2.151061534"
"03-132","","PL UNIVERS","7-9","428993.522673866","4580526.381126596","41.373123078","2.150902853"
"03-134","anat cap a Tarongers","AV MIRAMAR","31-41","430125.530692297","4580036.391767718","41.368808971","2.164494510"
"03-135","Carrer dels Vivers","AV ESTADI","31-35","429622.978340366","4579828.135265796","41.366889487","2.158510162"
"03-136","prop Pça Neptú","AV MIRAMAR","7-11","429802.790013753","4580012.224183202","41.368563219","2.160638618"
"03-137","Av. Dels Montanyans","AV ESTADI","5","428516.146158436","4579764.663579619","41.366220291","2.145284782"
"03-138","Pça Sant Jordi","AV MONTANYANS","1-3","428517.106890621","4579860.963721222","41.367087719","2.145284917"
"03-139","","PL SANT JORDI","44-38","428444.396798364","4579863.544277864","41.367104501","2.144415317"
"03-140","Font Màgica","AV MARQUES DE COMILLAS","4-2","429007.921124280","4580319.340698119","41.371259604","2.151099256"
"03-141","Pg Cascades","PG CASCADES","10-6","429054.079401944","4580083.089982903","41.369135842","2.151678787"
"03-142","","C MIRADOR DEL PALAU NACIONAL","10-6","429009.708613614","4579988.210173715","41.368277379","2.151159397"
"03-143","Font del gat, restaurant","PG SANTA MADRONA","63-65","429550.239884189","4580046.216154980","41.368847310","2.157615191"
"03-144","camí estret parc interior","PG SANTA MADRONA","22-16","429429.130089032","4580097.697154824","41.369300374","2.156161211"
"03-145","","C TRES PINS","31-35","429670.957963091","4579768.734809513","41.366358678","2.159090678"
"03-148","Pl. Neptú","AV MIRAMAR","1","429794.379660431","4579967.384177995","41.368158626","2.160543255"
"03-150","Alts Forns","PG ZONA FRANCA","136","428115.248915913","4578891.115272172","41.358316844","2.140595391"
"03-152","","C ONYAR","1","428207.772469366","4579340.895267089","41.362376114","2.141648190"
"03-157","parc davant Palau Sant Jordi","C PIERRE DE COUBERTIN","6","428987.043206452","4579280.239251356","41.361898916","2.150971308"
"03-159","Torre Telefónica","C PIERRE DE COUBERTIN","8","428912.064494521","4579465.180107402","41.363558002","2.150053284"
"03-161","Torre Telefónica","C PIERRE DE COUBERTIN","7-9","428719.793936912","4579430.611515005","41.363229653","2.147758751"
"03-162","Hípica Foixarda","AV MONTANYANS","12","428738.517717124","4579925.012137333","41.367684213","2.147924500"
"03-163","Gran Via de les Corts Catalanes","C MIR GERIBERT","2","428709.253117218","4580642.403466416","41.374142920","2.147490267"
"03-164","Jardins Arboreda","C ALTS FORNS","57-59","428019.928927070","4578911.906028762","41.358495584","2.139453467"
"03-167","Jardins de Màlaga","JARD MALAGA","81","428207.609679681","4581608.558766723","41.382800131","2.141377708"
"03-168","Jardins de Mossen Costa i Llobera","JARD MOSSEN COSTA I LLOBERA","38","430759.541442669","4580005.956913282","41.368589640","2.172078238"
"03-169","Jardins de Mossen Costa i Llobera","CTRA MIRAMAR","SN","430648.929002897","4579707.167290919","41.365889004","2.170789927"
"03-172","Entre Picornell i Pça Europa","PG MINICI NATAL","40-30","428873.036344229","4579716.850793255","41.365821270","2.149557188"
"03-173","interior","C ALTS FORNS","29","427743.117245812","4578746.297874665","41.356979217","2.136164172"
"03-175","-","C DILIGENCIES","1","428571.781983747","4579203.122287332","41.361167615","2.146016066"
"03-177","Puríssima Concepció","C PURISSIMA CONCEPCIO","22","429605.772032962","4580318.016151717","41.371300185","2.158247578"
"03-178","Mossen Amadeu Oller","C CONSTITUCIO","23-27","427843.168159586","4580164.939314057","41.369765389","2.137191387"
"03-187","Parc Font Florida","PARC FONT FLORIDA","50-52","428110.985662382","4579781.436685059","41.366335281","2.140438909"
"03-188","Sant Fructuós","PARC FONT FLORIDA","66-68","428165.416702798","4579907.526466399","41.367475786","2.141074723"
"03-191","","PL SORTIDOR","1-9","429953.213342806","4580420.263668247","41.372251410","2.162389933"
"03-192","Jardins de Laribal (restaurant Font del Gat)","JARD LARIBAL","23","429580.999108742","4579937.845754084","41.367873944","2.157995533"
"03-194","front porta Estadi Olímpic","AV ESTADI","56-50","429321.187150049","4579732.337411362","41.366000225","2.154913221"
"03-195","","JARD HORTES SANT BERTRAN","43-45","430888.914810235","4580423.066575180","41.372357548","2.173577482"
"03-196","Chopin","C CHOPIN","42-40","428669.079912479","4580228.353133494","41.370410152","2.147058634"
"03-197","Pça Olivereta","C BACARDI","33.B-35","427156.619814139","4580522.585086715","41.372924727","2.128939986"
"03-199","","C CAN CLOS","1-5","428676.942269220","4579219.461513564","41.361324100","2.147271290"
"03-200","","C PEDRERA DEL MUSSOL","1-11","428607.651548815","4579138.521914616","41.360588962","2.146452474"
"03-201","Jardins Arboreda","JARD ARBOREDA","43","427882.438492096","4578882.417027674","41.358217684","2.137813405"
"03-202","Ptge. Vapor Vell","C MIRACLE","45","427677.924200881","4580994.601850886","41.377223017","2.135116736"
"03-203","Premià","PL OSCA","7-11","427966.123544573","4580849.549435810","41.375942435","2.138580110"
"03-204","Jardins d'Elies Ortiz","C SANT ELOI","1-7","428288.457431219","4578660.233597334","41.356252813","2.142693219"
"03-205","Pça Vidriera","C GAYARRE","78-76","428170.301005946","4580473.607303713","41.372574711","2.141066057"
"03-206","Pça Farga","PL FARGA","3","427944.740506580","4580453.608987752","41.372374431","2.138371491"
"03-207","camp de futbol","C FERRERIA","26","428013.610834550","4580482.838509249","41.372643853","2.139191474"
"03-208","","CTRA PRAT","42-50","427498.979191786","4579052.490205932","41.359715038","2.133209214"
"03-211","jardins de Fabià Puigserver","JARD FABIÀ PUIGSERVER","42","429403.971227915","4580252.807585130","41.370695198","2.155842350"
"03-213","","CAMI MAR","SN","430220.105811668","4579374.370028227","41.362854539","2.165701425"
"03-214","jardins de la Mediterrània","C ALTS FORNS","69-71","428173.029657113","4578977.144966741","41.359096840","2.141275918"
"03-218","Quetzal","C QUETZAL","17-21","427469.625668932","4579912.521763230","41.367458385","2.132755470"
"03-220","Canalejas","C CANALEJAS","45-47","427365.330560387","4580578.473586035","41.373446956","2.131428774"
"03-221","Pça Jose Sanchez Rios","C COURE","4","427582.778009795","4578879.589300334","41.358165322","2.134231605"
"03-222","Jardins de Can Ferrero","PG ZONA FRANCA","118-106","428214.698361123","4578797.804371556","41.357485296","2.141795252"
"03-223","","RDA MIG","88-82","427465.887267054","4580123.952118906","41.369362322","2.132685484"
"03-224","","RBLA BADAL","62-58","427526.996249977","4579977.461427640","41.368048439","2.133433612"
"03-225","Jardins Valen Petit","RDA MIG","252-270","427725.522999685","4579508.639192278","41.363843777","2.135863028"
"03-227","Pça Sardana (antic parc d'atraccions)","CTRA MONTJUÏC","33-37","430469.581237532","4580038.129160757","41.368854412","2.168607787"
"03-228","Pça Sardana (antic parc d'atraccions)","CTRA MONTJUÏC","33-37","430443.081526812","4580081.639428648","41.369244007","2.168285965"
"03-229","Pça Dante (antic parc d'atraccions)","C TARONGERS","SN","430247.030185100","4579944.970704255","41.367996106","2.165957676"
"03-230","Pça Dante (antic parc d'atraccions)","PL DANTE","SN","430204.270436489","4579986.801092954","41.368369154","2.165441632"
"03-231","Salou","C SALOU","2","427924.533035947","4580790.989661813","41.375411285","2.138089766"
"03-232","Jardins Celestina Vigneaux","JARD CELESTINA VIGNEAUX","33-41","428146.209748198","4580312.767238623","41.371123932","2.140797069"
"03-233","Pça Sant Cristòfol","PL SANT CRISTOFOL","21-22","427806.679113930","4578979.787754667","41.359087880","2.136896191"
"03-234","","PL MARINA DE SANTS","36-30","428047.300644350","4579132.806163794","41.360487602","2.139754470"
"03-235","jardins Elisard Sala","JARD ELISARD SALA","53","427975.448807582","4581540.910428623","41.382170098","2.138609453"
"03-236","Pça Armada","CTRA MIRAMAR","38","430775.822459943","4580136.616991235","41.369767859","2.172257977"
"03-237","centre plaça","CTRA MIRAMAR","40","430758.673183265","4580235.377273335","41.370655890","2.172041659"
"03-238","Sant Roc","C TORRE D'EN DAMIANS","4-2","428499.063765337","4580770.415261628","41.375277230","2.144961948"
"03-239","Pg de Montjuïc","PG MONTJUIC","76-74","430345.393625017","4580377.900625058","41.371903896","2.167083963"
"03-241","Turia","C TÚRIA","4-2","428118.004341176","4579605.856359884","41.364754517","2.140543631"
"03-243","jardins Can Mantega","JARD CAN MANTEGA","62-60","427500.165481367","4581199.463518308","41.379052131","2.132966688"
"03-244","Comtes de Bell-lloc","C COMTES DE BELL-LLOC","116-112","427835.077756702","4581431.051327427","41.381168061","2.136943925"
"03-245","Llobet","C CREU COBERTA","112","428226.333420866","4580780.397350680","41.375342857","2.141699693"
"03-246","Gran Via de les Corts Catalanes","C RADI","221-239","427662.722163000","4579411.069518274","41.362959362","2.135123879"
"03-247","Manzanares","C SAGUNT","51","427631.359032906","4580323.071168755","41.371170608","2.134640102"
"03-248","","PG MIRAMAR","19","430325.192661087","4580255.090589252","41.370796034","2.166856542"
"03-249","","PG MONTJUIC","77-83","430452.573343584","4580318.959722032","41.371382301","2.168372228"
"03-250","hotel Miramar","CTRA MIRAMAR","15","430631.383226449","4580267.038286855","41.370930091","2.170516110"
"03-251","jardins dels Drets Humans","JARD DRETS HUMANS","14-8","427754.970966054","4579234.518543214","41.361377513","2.136247728"
"03-252","jardins dels Drets Humans","JARD DRETS HUMANS","13-17","427777.970682932","4579192.518303225","41.361001295","2.136527680"
"03-253","jardins dels Drets Humans","C JANE ADDAMS","7-11","427800.540373972","4579147.198061342","41.360595136","2.136802884"
"03-254","","C TARONGERS","53-69","430336.988869445","4579753.299726862","41.366277572","2.167055229"
"03-255","","PG MIGDIA","SN","430324.378537036","4579712.089758906","41.365905314","2.166909201"
"03-256","entre Alumini i Energia","C BRONZE","5-7","427645.997833109","4578843.458763750","41.357845590","2.134991642"
"03-257","Pça. Llorca","PL LLORCA","4-5","428179.814100736","4579561.625821606","41.364361665","2.141287817"
"03-258","jardins de Joan Maragall (Palauet Albeniz)","PG PAVELLO ALBENIZ","23","429459.988794403","4579920.906647614","41.367710783","2.156550726"
"03-259","jardins de Joan Maragall (Palauet Albeniz)","PARC MONTJUIC","33-45","429366.008256857","4579869.097281901","41.367235912","2.155433149"
"03-260","Av. Castell","AV CASTELL","199","430098.967120193","4579571.241252355","41.364617192","2.164230531"
"03-261","dins del Parc de l'Espanya Industrial","C MUNTADAS","28-20","428204.484721778","4580956.207787578","41.376924369","2.141417621"
"03-262","dins del Parc de l'Espanya Industrial","PARC ESPANYA INDUSTRIAL","3","428124.704910994","4580997.338457559","41.377287696","2.140458782"
"03-264","Jardins Mossen Cinto Verdaguer","JARD MOSSEN CINTO VERDAGUER","SN","430119.389923843","4579936.421660365","41.367908037","2.164432611"
"03-265","Jardins Mossen Cinto Verdaguer","C DOCTOR FONT I QUER","20-30","430056.609474548","4579889.922065781","41.367483776","2.163687381"
"03-266","","PL BUENAVENTURA DURRUTI","1","428089.753317413","4579476.626374394","41.363588065","2.140221207"
"03-267","Mirador del Poblesec","MDOR POBLE SEC","30","430741.664409478","4580400.327656167","41.372140087","2.171819453"
"03-270","aparcament Jardí Botànic","CAMI MOLI","182-176","429734.782704662","4579062.973233722","41.360007670","2.159935498"
"03-271","darrera Castell (Guardia Urbana)","C CARTOIXA","SN","430001.895000175","4579311.531588788","41.362269629","2.163099983"
"03-272","Jardins Teatre Grec","JARD TEATRE GREC","29","429632.530426082","4580100.955613940","41.369347530","2.158592705"
"03-273","al costat dels jocs infantils (Motors 119)","C ULLDECONA","98.I","428346.653741791","4578161.842379666","41.351769146","2.143447727"
"03-274","a uns 40 cm de la calçada","C MOTORS","119-129","428307.242652102","4578026.072467475","41.350542803","2.142992691"
"03-275","","C VIDRIOL","24-22","428627.243383590","4580694.124169577","41.374601481","2.146503592"
"03-277","","JARD TRES XEMENEIES","40","430794.106520390","4580667.587669765","41.374551732","2.172415975"
"03-278","","JARD CA L'ALENA","168","428334.730264982","4579024.533811606","41.359538064","2.143203316"
"03-279","Font del Gat","PG SANTA MADRONA","23","429558.198919423","4579917.515896000","41.367688844","2.157725300"
"03-280","","PG SANTA MADRONA","75","429621.060090305","4580059.045636516","41.368969057","2.158460428"
"03-281","","C MELCIOR DE PALAU","97","427725.586739379","4581319.321988347","41.380151930","2.135647936"
"03-282","Cobriment de Sants","C ANTONI DE CAPMANY","50-70","427600.941516694","4580656.581915064","41.374171678","2.134236591"
"03-283","Cobriment de Sants","C RIERA DE TENA","65-67","427534.010590314","4580548.112256548","41.373188709","2.133449271"
"03-284","Cobriment de Sants","C ANTONI DE CAPMANY","2","427422.599226862","4580391.072861069","41.371764276","2.132135956"
"03-285","Cobriment de Sants","C ANTONI DE CAPMANY","19","427336.938215843","4580275.233333279","41.370713224","2.131125637"
"03-286","","C GUITARD","1-7","428018.587132866","4581311.569748035","41.380108374","2.139152559"
"03-287","","C MIQUEL BLEACH","13-19","428292.893959175","4580837.796932997","41.375865768","2.142488776"
"03-288","","C FOC","82-68","428129.277232393","4578666.254816099","41.356292854","2.140789722"
"03-289","","C MARGARIT","7-11","429920.900638724","4580070.673375654","41.369099945","2.162043989"
"03-290","Recinte Magòria","C CORRAL","34-32","428026.597622323","4580056.887752592","41.368808630","2.139397316"
"03-291","","C PRIORAT","8","428045.812319587","4580671.968556156","41.374350158","2.139554048"
"03-292","Jardins de la Mediterrània","JARD MEDITERRANIA","71.I","428164.440062235","4579032.305117651","41.359592883","2.141166705"
"03-293","","Pl. Falset","","428217.794235383","4578253.033500563","41.352579000","2.141896705"
"03-294","Camp de futbol","Acer","18","427937.291819686","4577991.145223145","41.350195211","2.138574965"
"03-295","","Rambla Badal","113","427411.758501662","4580297.692799146","41.370922259","2.132017520"
"03-296","Zona Verda de la Marina del Prat Vermell","Arnes","","428141.023809014","4578212.334020357","41.352205588","2.140983890"
"03-297","ESPAIS DE CESSIÓ SECTOR 3, MARINA ZONA FRANCA","Ferro","","427945.844538349","4578348.075714546","41.353410730","2.138634814"
"03-298","Font de les Palmeres","Av. Miramar","","429830.619457454","4579933.323850075","41.367855015","2.160980475"
"03-299","Zona Verda de la Marina del Prat Vermell","Cal Cisó","","428070.732378454","4578037.844282349","41.350627741","2.140164383"
"03-300","Can Clos","Ferrocarrils Catalans","59","428439.591164296","4579121.863165816","41.360424003","2.144445369"
"04-001","","AV SANT RAMON NONAT","33","426115.252124322","4581039.343804953","41.377484027","2.116425751"
"04-004","Av. Madrid","C LLUÇA","1","427390.836754235","4581389.404642237","41.380752998","2.131636601"
"04-006","Jardins de les Infantes","JARD INFANTES","13-29","427631.410722592","4581863.113540378","41.385041183","2.134456834"
"04-007","Entrada Parc Cervantes","C MANUEL BALLBE","3-5","425442.146964176","4581814.840122579","41.384406487","2.108281729"
"04-009","Pça Sol de Baix","PL SOL DE BAIX","24-20","427242.017673995","4581540.876007272","41.382103796","2.129838821"
"04-010","Jardins Can Feu","JARD CAN FEU","11-13","427273.924908052","4582487.097217117","41.390628910","2.130106791"
"04-011","Jardins Can Feu","C JOSEP IRLA I BOSCH","2","427153.114679314","4582481.618128007","41.390568629","2.128662572"
"04-012","Doctor Salvador Cardenal","C SABINO DE ARANA","27","426769.170225248","4581973.350269430","41.385956012","2.124132086"
"04-013","","AV DIAGONAL","682","426667.501293502","4582134.811291061","41.387400961","2.122896680"
"04-015","cementiri","AV JOAN XXIII","3-15","426609.277477593","4581644.000979325","41.382975131","2.122259818"
"04-016","Parc de Cervantes","PG DON QUIXOT","673-685","425366.686519988","4581771.740630331","41.384011313","2.107384629"
"04-017","Dulcet","C DULCET","1-7","425952.712568266","4582448.787212670","41.390163321","2.114309948"
"04-018","Pça Pedralbes","PL PEDRALBES","18","425957.237232313","4583062.158119050","41.395688089","2.114289073"
"04-019","","PTGE PINTOR TAPIRO","45.I","426293.662830427","4581096.002535382","41.378010689","2.118552200"
"04-020","Aristides Maillol","C ARISTIDES MAILLOL","9-21","426377.593825246","4581209.992072892","41.379045029","2.119541963"
"04-021","Av. Exèrcit","C ALFAMBRA","20","425791.099621312","4582093.597896534","41.386949397","2.112420607"
"04-022","Alfambra / Joan Obiols","C TRIAS I GIRO","17","425859.029232975","4582028.537279499","41.386369689","2.113240951"
"04-023","Adolf Florensa","C ADOLF FLORENSA","15-23","425931.257858171","4581832.616428278","41.384611771","2.114128691"
"04-024","Gerard Piera","PL SOL DE BAIX","18-14","427213.477446689","4581516.746187245","41.381883887","2.129500426"
"04-026","Evarist Arnus","C GUITARD","74","427814.380054826","4581737.931956357","41.383930160","2.136659860"
"04-028","GV Carles III","C ANTONI ALBERDI","6-2","427208.385655736","4582598.907887094","41.391630013","2.129309511"
"04-029","Nicaragua / Numància","PL CORTS","98","427846.341781096","4581958.752052112","41.385921868","2.137015783"
"04-033","Bertran i Rozpide","AV PEDRALBES","20-16","426468.932350348","4582314.563078069","41.389001780","2.120500118"
"04-034","Nicaragua / Numància","C BATISTA I ROCA","3","427800.132299227","4582036.382522704","41.386616909","2.136453910"
"04-035","Travessera de les Corts","C VALLESPIR","203","427519.840872727","4581905.604454352","41.385413837","2.133117499"
"04-037","Sarrasastre","AV DIAGONAL","660-656","427262.063750268","4582337.067077453","41.389276578","2.129982949"
"04-038","Av. Diagonal / Entença (muntanya)","AV DIAGONAL","642-634","427800.455933693","4582514.823253171","41.390926064","2.136400755"
"04-039","entre Doctor Ferran i Capità Arenas","AV DIAGONAL","670","426928.642422055","4582230.159450445","41.388283486","2.126008244"
"04-041","entre Alfambra i Tinent Coronel Valenzuela","AV DIAGONAL","692-688","425971.168574188","4581918.806257308","41.385391718","2.114595442"
"04-045","Jardí Bacardí","JARD BACARDI","120-118","426889.695472511","4581322.628351233","41.380106191","2.125651965"
"04-046","Jardí Bacardí","JARD BACARDI","112-110","426844.905153917","4581289.778641309","41.379806256","2.125120330"
"04-048","Rda de Dalt","PL ALCALDE BARÓ DE VIVER","1-23","425118.896380620","4581804.102565787","41.384279756","2.104417403"
"04-049","Rda de Dalt","PL ALCALDE BARÓ DE VIVER","697-701","425089.175193233","4581653.672559829","41.382922136","2.104080576"
"04-051","Joan Obiols","C TRIAS I GIRO","17","425909.709437156","4582045.076919301","41.386523324","2.113845017"
"04-054","Aviació","PL CAN ROSES","68-66","427686.253068372","4582160.843579894","41.387727651","2.135077150"
"04-055","","PL CONCORDIA","1","427433.751809033","4582046.445325450","41.386674573","2.132071094"
"04-056","","PL COMAS","8-7","427251.480267199","4581880.526457399","41.385163746","2.129911198"
"04-057","Pça Carme","PL CARME","7-11","428109.644263411","4582232.000467831","41.388406484","2.140132211"
"04-058","Alts Estudis Empresarials","AV DIAGONAL","696-694","425747.617617267","4581838.417834527","41.384647093","2.111931872"
"04-059","Lateral Ronda de Dalt","PARC CERVANTES","29-33","425115.076863275","4581868.502694176","41.384859423","2.104363768"
"04-061","Rda de Dalt","PL ALCALDE BARÓ DE VIVER","1-23","425053.175650203","4581721.282938112","41.383527719","2.103641716"
"04-062","Josep Irla","C JOSEP IRLA I BOSCH","2","427176.015098244","4582532.108031105","41.391025445","2.128930388"
"04-063","Mejía","TVRA DE LES CORTS","173-177","427065.787541030","4581559.267376117","41.382253484","2.127729188"
"04-064","Josep Tarradellas","C MARQUES DE SENTMENAT","96","428245.841791497","4581878.858890631","41.385238033","2.141802896"
"04-065","Jardins Joan Altisent","JARD JOAN ALTISENT","10-14","428242.303775618","4582140.799318952","41.387596916","2.141729560"
"04-066","Jardins Rubió i Tuduri","C SOR EULALIA D'ANZIZU","36-32","425971.333895512","4582619.807333514","41.391705336","2.114511752"
"04-067","","C AGUSTINA SARAGOSSA","3-21","427646.496234256","4582585.754533195","41.391551078","2.134550928"
"04-068","Jardins Ferran Soldevila","PL VALDIVIA","20-18","427442.973488601","4582265.735591616","41.388650464","2.132155113"
"04-070","Jardins Can Cullàs","JARD CAN CUIAS","20","427716.140926771","4581872.752910620","41.385135618","2.135468964"
"04-072","dins del Parc de Pedralbes","PARC PEDRALBES","28-32","426160.120912775","4582188.295234036","41.387836253","2.116822258"
"04-073","Parc de Pedralbes","AV DIAGONAL","686","426306.600123559","4582054.393913579","41.386643695","2.118590344"
"04-074","Felipe Paz","JARD JOSEP GODAY I CASALS","61","426917.594042391","4581128.497839806","41.378360271","2.126008985"
"04-076","Jardins Creu de Pedralbes","AV ESPLUGUES","117","425819.246232975","4582958.799011081","41.394744465","2.112651254"
"04-078","Jardins Josep Munté","JARD JOSEP MUNTÉ","32","426140.252992706","4581148.703783677","41.378471280","2.116711371"
"04-079","Jardins Joaquim Ruyra","JARD JOAQUIM RUYRA","147","428012.275218384","4582377.531431418","41.389708517","2.138950428"
"04-081","Emérita Augusta","C FELIPE DE PAZ","17-19","426870.434513124","4581200.138308955","41.379001222","2.125436424"
"04-083","Av. Diagonal","PG DON QUIXOT","695","425223.406297164","4581771.701720539","41.383997658","2.105671201"
"04-084","Jardins dels Doctors Dolsa","JARD DOCTORS DOLSA","1-3","427199.876564638","4581403.316116137","41.380861038","2.129351409"
"04-085","Jardins Clot d'En Salvi (biblioteca)","JARD CLOT D'EN SALVI","30","426582.083006846","4581060.420286666","41.377716582","2.122005313"
"04-086","Av Sarrià / Loreto","PL DOCTOR IGNASI BARRAQUER","379","428229.826301309","4582475.809926605","41.390613114","2.141540644"
"04-087","parc","C ENTENÇA","234-218","428257.042726536","4581999.688990646","41.386327303","2.141922540"
"04-088","Jardins de Can Bruixa","JARD CAN BRUIXA","6","427298.539012947","4581705.735830829","41.383593732","2.130494943"
"04-089","Jardins Emilia Miret i Soler","C ROBERT GERHARD","4","426988.684511286","4582493.039396740","41.390656587","2.126694629"
"04-090","prop Mirador dels Xiprers","CTRA AIGÜES","SN","424765.540636939","4582437.496231055","41.389951461","2.100113086"
"04-091","","C TORRENT DE LES ROSES","43","425034.449509966","4582233.843870763","41.388142369","2.103354357"
"04-092","Jardins Ernest Lluch","JARD ERNEST LLUCH","36","425875.232323227","4581114.575746933","41.378139534","2.113546526"
"04-093","Jardins Gaietà Renom","JARD GAIETÀ RENOM","39","428016.144045375","4582222.321164333","41.388310945","2.139015143"
"04-094","Jardins Sant Joan de Déu","JARD SANT JOAN DE DEU","69-99","427723.554149949","4582295.653502697","41.388945183","2.135507164"
"04-095","","C DOCTOR FERRAN","20-18","426843.803964165","4582450.560434102","41.390260832","2.124967003"
"04-096","Miret","C ABADESSA OLZET","16","425755.394098682","4582690.759085973","41.392324461","2.111920404"
"04-097","-","RIER BLANCA","21","426577.361440599","4580854.950005321","41.375865565","2.121973744"
"04-098","","CAMI TORRE MELINA","5.I","425720.280634465","4580923.596630391","41.376405180","2.111717087"
"04-099","","AV ALBERT BASTARDAS","19-25","425331.202404744","4581236.530074028","41.379187623","2.107026237"
"04-100","","AV ALBERT BASTARDAS","19-25","425312.832134964","4581204.720164612","41.378899420","2.106810490"
"04-101","","PL CENTRE","7-9","427736.438400187","4581535.872238806","41.382103289","2.135751877"
"04-102","","JARD ÀUREA CUADRADO","8","425531.020585973","4580955.878119966","41.376678433","2.109450094"
"04-103","Jardins de Ceràmiques Vicenç","C BENAVENT","45","426773.674320962","4581194.539036297","41.378941992","2.124280066"
"04-104","","C TORRENT DE LES ROSES","2","425223.890774813","4582361.702625725","41.389311565","2.105604172"
"04-105","Plaça de Caba - Marquès de Sentmenat","PL CABA","96","428252.922133275","4581922.418903556","41.385630993","2.141882411"
"04-106","Davant Tanatori de les Corts","Av. Alfons XIII","","426637.208538698","4581778.100973201","41.384185460","2.122577594"
"04-107","","Pl. del Coll de Finestrelles","","425097.880475129","4582348.033563773","41.389176730","2.104098832"
"04-108","Jardins de Clara Campoamor","Av. Diagonal","609","427190.142803195","4582227.017455923","41.388278900","2.129136027"
"04-109","Parc Colònia Castells","Equador","","428048.103061539","4582086.290712794","41.387088630","2.139413513"
"05-001","Avenir","C AVENIR","66-68","428492.340017319","4582911.448594680","41.394560126","2.144628859"
"05-003","Amigó","C MADRAZO","112-106","428412.331495752","4583122.259525034","41.396451700","2.143646981"
"05-004","Santaló","C CALAF","21-23","428414.561865692","4583170.479581567","41.396886198","2.143667958"
"05-005","Rector Ubach","C RECTOR UBACH","23","428433.273068660","4583324.939674527","41.398279025","2.143873508"
"05-006","Tavern","C MARC AURELI","4","428388.024392129","4583508.260298031","41.399926093","2.143310590"
"05-008","Modolell","C PRATS DE MOLLO","8","427885.874803470","4583664.694358245","41.401290150","2.137285424"
"05-010","Aribau","C MADRAZO","99-101","428678.013603753","4583345.527843330","41.398486200","2.146798512"
"05-012","Pça. Sant Vicens de Sarrià","PL MAÑE I FLAQUER","2","428797.048143113","4583918.347808225","41.403655916","2.148154959"
"05-014","Maspons","PL SANT JOAQUIM","8","428656.048948554","4584052.969085854","41.404855897","2.146452410"
"05-015","Rios Rosas","C PADUA","96","428430.548005681","4583974.900683879","41.404132722","2.143764073"
"05-016","Rda del General Mitre","C SANT GERVASI DE CASSOLES","10","428054.047673868","4584007.993600247","41.404397171","2.139256286"
"05-017","Muntaner","TVRA DE GRÀCIA","41","428768.230921484","4582974.306591259","41.395150749","2.147921308"
"05-018","Pça. Joan Llongueras","PL JOAN LLONGUERAS","2","428196.838029319","4582709.960535536","41.392719073","2.141118348"
"05-019","Jardins Doctor Castelló","JARD DOCTOR CASTELLO","49-51","427740.056845028","4582647.093915116","41.392111948","2.135662603"
"05-020","Turó del Putget","JARD TURO DEL PUTXET","36.U","428476.212147166","4584510.191148296","41.408957930","2.144247066"
"05-021","Turó del Putget","JARD TURO DEL PUTXET","34-32","428416.552226567","4584532.791636776","41.409156173","2.143530663"
"05-022","Turó del Putget","JARD TURO DEL PUTXET","23-27","428374.111889855","4584497.171905928","41.408831580","2.143027151"
"05-023","Turó del Putget","JARD TURO DEL PUTXET","81","428372.442657950","4584598.502072174","41.409744070","2.142995187"
"05-024","Turó del Putget","JARD TURO DEL PUTXET","23-27","428342.791987242","4584516.362173472","41.409001627","2.142650189"
"05-025","Turó del Putget","JARD TURO DEL PUTXET","23-27","428295.982325503","4584570.382611740","41.409483992","2.142083790"
"05-026","Alcoi","C LLUÇANES","36-32","427397.459914603","4584436.739250612","41.408199668","2.131350462"
"05-027","Quatre Camins","C BELLESGUARD","2","427141.709476104","4584431.331189859","41.408127820","2.128291538"
"05-028","Calatrava","C CALATRAVA","44-42","427074.984331076","4583768.050688572","41.402147895","2.127573214"
"05-029","Calatrava","C CALATRAVA","19-21","427308.752381772","4583463.788445104","41.399428706","2.130406085"
"05-030","Rosari","C ROSARI","23-25","427268.399939548","4583150.598274169","41.396604286","2.129961029"
"05-031","Pça. Ferran Casablancas","PL FERRAN CASABLANCAS","1","427556.354397259","4583678.466887563","41.401384570","2.133342094"
"05-034","Pça. Del Xiprer","PL XIPRER","40","426822.760624437","4583331.751942934","41.398195429","2.124608849"
"05-035","Santa Magdalena Sofia","C MAJOR DE SARRIA","172","426439.352969512","4583718.825452762","41.401646641","2.119975778"
"05-036","","PL ARTOS","4","426937.448472617","4583025.060601205","41.395443622","2.126017669"
"05-037","Manuel Girona","C CAPITA ARENAS","31-33","426899.225174590","4582598.640239342","41.391599563","2.125611960"
"05-038","Manuel Girona","C MARQUES DE MULHACEN","2","426502.393497760","4582458.853044895","41.390304396","2.120882792"
"05-039","Riu de l'Or","C MANUEL DE FALLA","2.A","426741.446064472","4582748.031668950","41.392930711","2.123706841"
"05-040","Pça. Martí Llauradó","PL MARTI LLAURADO","1","427345.838451951","4582938.987361421","41.394705396","2.130912661"
"05-041","Buigas","C NENA CASAS","10-2","427471.808196172","4582879.626312002","41.394182126","2.132426451"
"05-042","Àngel Guimerà","C ANGEL GUIMERA","7-9","427534.169558269","4583046.196091956","41.395687973","2.133152396"
"05-043","Apel·les Mestres","C COLLSEROLA","31-53","427652.858255896","4585482.558910401","41.417641934","2.134280770"
"05-044","Desert","PG SANTA EULALIA","23.B","425976.934215861","4583977.559368501","41.403934495","2.114412741"
"05-045","","CTRA AIGÜES","SN","426353.922838558","4585034.898106229","41.413492071","2.118793717"
"05-046","","CTRA AIGÜES","SN","426590.916130245","4585419.996897924","41.416982156","2.121582391"
"05-047","davant 23 del C. Alberes","PL PEP VENTURA","25","425236.721979031","4585151.126793676","41.414435731","2.105413128"
"05-048","prop camp de futbol","C REIS CATOLICS","36","424949.222748825","4585311.669230757","41.415854855","2.101953518"
"05-049","","C PELFORT","8","424880.160301689","4585003.709286041","41.413074768","2.101165464"
"05-050","","CAMI FREDOLIC","22.I","424546.394104802","4585573.952717389","41.418179380","2.097101186"
"05-051","","CAMI MAS SAURO","55","424471.133405203","4585497.103168486","41.417480167","2.096210299"
"05-052","","CTRA AIGÜES","SN","427013.776540687","4585387.243624971","41.416725681","2.126645751"
"05-055","","C MAJOR DEL RECTORET","80","424512.510757578","4586459.364381541","41.426150618","2.096585255"
"05-057","","C BALADRE","30-28","424168.392334698","4586738.547444507","41.428632652","2.092432412"
"05-058","","C BALADRE","37","424294.953328009","4586843.526646729","41.429590079","2.093933790"
"05-059","Camí Mas Castellví","C CAN CASTELLVI","1","423928.959072525","4586357.408664734","41.425177313","2.089615129"
"05-060","Pça. Cardona (centre plaça)","PL CARDONA","56","428797.043433250","4583298.886866499","41.398076671","2.148227761"
"05-061","Pomaret","PG BONANOVA","84-82","426854.993841717","4583748.612333760","41.401952839","2.124944036"
"05-063","Ptge Santa Amelia","C CARROÇ","2","425578.997937831","4584549.033270217","41.409044743","2.109582243"
"05-064","Plta Can Garriga","PLTA CAN GARRIGA","26-24","426794.060959507","4583381.722237729","41.398642877","2.124259523"
"05-067","Beltran / Balmes","PL FIGUEROLA","2","428093.358709829","4584136.233495804","41.405555692","2.139711308"
"05-068","","PL CAMP","1","427802.666536890","4583909.705364498","41.403489394","2.136260875"
"05-069","Jardins Doctor Roig i Raventós","JARD DOCTOR ROIG I RAVENTOS","75","427319.216006259","4583938.579088932","41.403705887","2.130474242"
"05-070","Pomaret","C MARGENAT","85.B","426893.736160189","4584045.782491593","41.404632842","2.125371580"
"05-071","Anglí","C MARGENAT","47-49","426677.054603535","4583885.253896817","41.403167300","2.122798983"
"05-072","Major de Sarrià / Salvador Mundi","PL CONSELL DE LA VILA","6","426568.110985353","4583431.314033517","41.399068925","2.121550842"
"05-073","Dalmacia / Sagrat Cor","C DALMACIA","1-3","426439.571512347","4583526.975158192","41.399918753","2.120001704"
"05-074","Pedró","C JORDA","25","426513.548979167","4583178.364062208","41.396785733","2.120928903"
"05-075","Rocaberti","C ROCABERTI","9","426860.199583977","4583187.141436982","41.396896391","2.125074135"
"05-076","","PL MANUEL CORACHAN","4","427244.707567866","4582843.237984642","41.393833879","2.129714573"
"05-077","Jardins Vil·la Amèlia (davant llac)","JARD VIL·LA AMELIA","15.I","426635.675780033","4582732.182449645","41.392778323","2.122443716"
"05-078","","PL VALLVIDRERA","1","425139.010499252","4584976.487272536","41.412853746","2.104265699"
"05-090","Balmes / Via Augusta","PL MOLINA","2","428707.075624868","4583605.468017641","41.400829957","2.147115525"
"05-091","Mont-Roig","PL TORRE","3","428915.349380066","4584056.927118050","41.404914515","2.149553845"
"05-092","Princep d'Astúries","C MONT-ROIG","246-244","428868.780251051","4584180.927660604","41.406027220","2.148982185"
"05-093","Santaló","PL ADRIA","5","428033.444942522","4583652.903217018","41.401197174","2.139052043"
"05-095","Parc de Monterols","PARC MONTEROLS","5-7","428224.495846244","4583732.851884439","41.401934317","2.141327891"
"05-096","Pça Boston","PL BOSTON","10-8","428154.866805361","4583873.202627883","41.403192180","2.140478330"
"05-097","C/ Mañé i Flaquer","PL SANT VICENÇ DE SARRIA","3","426785.309840511","4583236.212082025","41.397331534","2.124172443"
"05-098","Sant Joan Bosco / Benet Mateu","PL ARTOS","2","426881.468698812","4583066.271090302","41.395809699","2.125343131"
"05-100","","PL BONANOVA","7-8","427583.438674284","4584235.607528997","41.406404938","2.133599418"
"05-103","Saragossa","C PUTGET","29","428398.459449767","4584171.351226419","41.405899215","2.143356976"
"05-104","Major de Sarrià","C HORT DE LA VILA","10-4","426655.060870468","4583398.413321346","41.398780539","2.122594872"
"05-105","Pça John F Kennedy","PL JOHN F. KENNEDY","466","427881.361918179","4584601.415815808","41.409726401","2.137119826"
"05-106","Major de Sarrià","C NOU DE SANTA EULALIA","2","426311.633854112","4583861.396642732","41.402919019","2.118430661"
"05-107","Pg de Sarrià / Rda General Mitre","C BUIGAS","1","427272.686826171","4582739.887613593","41.392905576","2.130061630"
"05-108","davant escola","PL MINA GROTT","12","424637.514654125","4585627.682108687","41.418671843","2.098184736"
"05-109","Roman Macaya","C ROMAN MACAYA","26","427920.585529590","4585068.246224194","41.413934460","2.137533462"
"05-110","placeta","C DALMACIA","1-3","426444.681489369","4583522.905113072","41.399882563","2.120063322"
"05-112","","AV ROSSINYOLS","23","424745.022170695","4586597.942830365","41.427420534","2.099350312"
"05-115","Horaci / Maó","PL MARE DE DEU DE LA PAU","10-11","427443.096746648","4584010.688255525","41.404366533","2.131947498"
"05-117","Parc de la Font del Racó","PARC FONT DEL RACÓ","2","427355.166108469","4585259.950821358","41.415610146","2.130745658"
"05-118","Jardins de la Vil·la Cecília","C RIU DE L'OR","19-31","426578.606158914","4582793.732978282","41.393327474","2.121753686"
"05-120","Av Diagonal","PL JOAN LLONGUERAS","6","428109.987672236","4582680.641151572","41.392447246","2.140083070"
"05-121","Cornet i Mas","C CANET","15","426686.520714209","4583371.413040612","41.398540229","2.122974445"
"05-122","zona de gronxadors","PARC CASTELL DE L'ORENETA","SN","425738.240187934","4583496.200450648","41.399577111","2.111616464"
"05-125","Plta Roser","PLTA ROSER","9","426538.561299459","4583478.704330860","41.399493049","2.121191635"
"05-126","Jardí Tres Torres","C GANDUXER","90-88","427631.932404052","4583400.775889049","41.398890330","2.134279344"
"05-127","Jardí Tres Torres","JARD TRES TORRES","249","427639.522077192","4583356.215763325","41.398489678","2.134375453"
"05-128","Solé i Pla, 5","PG SOLE I PLA","4-8","423923.001369259","4586661.789192006","41.427918131","2.089505539"
"05-129","Clos de Sant Francesc","C SETANTI","4-2","426559.720386247","4583354.163979509","41.398373303","2.121459836"
"05-130","","C GESPA","26","423929.218578402","4586292.128559326","41.424589397","2.089626447"
"05-132","al parc","C REIS CATOLICS","13-19","425050.542129698","4585209.228300498","41.414941679","2.103178440"
"05-133","Folgueroles","PL ROSA SABATER","46","427896.320045450","4584352.085323667","41.407482129","2.137328484"
"05-137","centre plaça","PL JOAQUIM PENA","14","427142.399860178","4583165.869256511","41.396730420","2.128452105"
"05-138","Eduardo Conde","C EDUARD CONDE","6-2","426692.554559135","4582559.791752571","41.391230861","2.123144868"
"05-139","Balmes","PL JOAQUIM FOLGUERA","3-5","428035.458542352","4584126.013921076","41.405458467","2.139019882"
"05-141","","TORR FONT DEL MONT","2","425737.492384810","4585101.652903388","41.414036574","2.111410522"
"05-143","passeig central al davant pça Joan Llongueras","AV DIAGONAL","620","428146.817323015","4582627.180789626","41.391969041","2.140529905"
"05-144","Parc del castell de l'Oreneta","CAMI MARE DE DEU DE LORDA","1-17","425519.779884587","4583501.032121354","41.399600422","2.109002761"
"05-145","Parc del castell de l'Oreneta","PTGE BLADA (CAN CARALLEU)","14.B","425459.250786272","4583632.172782846","41.400775933","2.108262597"
"05-146","Jardins Vil·la Amèlia (zona jocs infantils)","C FRANCESC CARBONELL","16-14","426745.185378502","4582656.941500941","41.392110642","2.123762582"
"05-147","Jardins Vil·la Amèlia (costat bar)","JARD VIL·LA AMELIA","7","426690.015186396","4582642.911899303","41.391979257","2.123104436"
"05-150","","AV PAU CASALS","12","428370.718955220","4582796.429344554","41.393513369","2.143187794"
"05-151","Parc del Poeta Eduard Marquina (Turó Parc)","PARC POETA EDUARD MARQUINA","4","428228.489445854","4582889.940569576","41.394342908","2.141475579"
"05-152","Parc del Poeta Eduard Marquina (Turó Parc)","C FERRAN AGULLO","8","428199.940129910","4582985.770933094","41.395203466","2.141122750"
"05-153","Parc del Poeta Eduard Marquina (Turó Parc)","C FRANCESC PEREZ-CABRERO","3","428150.349147250","4582866.551128466","41.394125271","2.140543748"
"05-154","interiors","JARD CAMP DE SARRIÀ","26-24","427531.217467583","4582771.605694726","41.393214585","2.133149946"
"05-155","Jardins de Can Senillosa","JARD CAN SENILLOSA","6","426767.137587464","4582943.311772396","41.394691854","2.123990505"
"05-156","Jardins d'Enric Sagnier","C BRUSI","51-61","428467.476138499","4583721.800018159","41.401856432","2.144235732"
"05-157","","PL BORRAS","4","426214.984598027","4583979.097558177","41.403970232","2.117260184"
"05-158","","C MUNTANER","540-548","427735.618030617","4584119.876194492","41.405376290","2.135433729"
"05-159","Parc de Monterols (entrada parc)","PARC MONTEROLS","1","428127.186158239","4583793.722717732","41.402473863","2.140156644"
"05-160","Parc de Monterols","PARC MONTEROLS","55-59","428175.105597857","4583710.242225990","41.401726271","2.140739767"
"05-161","Parc de Monterols","PARC MONTEROLS","55-59","428194.735668403","4583715.522084605","41.401775577","2.140973955"
"05-162","","PL CALVO","66-70","427405.052109379","4584723.849628547","41.410786230","2.131406844"
"05-163","Jardins Marià Manent","JARD MARIA MANENT","11","428179.472748661","4584649.783619174","41.410188722","2.140680515"
"05-164","","C DOMINGUEZ I MIRALLES","22-20","426322.228944504","4583212.925571429","41.397079507","2.118636318"
"05-165","Jardins de Can Sentmenat","C DESERT","2","426012.333614640","4583891.168967125","41.403159676","2.114846759"
"05-166","Jardins de Moragas","JARD MORAGAS","3","428578.763621816","4583368.098633011","41.398680677","2.145608681"
"05-167","Jardins Mercè Rodoreda","JARD MERCÈ RODOREDA","79-81","428453.523989742","4584757.061694908","41.411179372","2.143946452"
"05-168","","C SAGRAT COR","21-23","426363.561976657","4583603.645853960","41.400602333","2.119083185"
"05-169","","RIER MONGES","16","426179.213711041","4583869.677663638","41.402981454","2.116845626"
"05-170","Jardins de Can Castelló","JARD CAN CASTELLO","49","428111.713287548","4583419.222265446","41.399099506","2.140016027"
"05-171","Tibidabo","CAMI SANT CUGAT","96","426276.083456571","4586452.430940483","41.426251958","2.117689651"
"05-172","Sant Magí","C SANT MAGI","230","428806.209960626","4584155.478098315","41.405792467","2.148236664"
"05-173","","PL SARRIA","9","426580.061563046","4583504.914054955","41.399732899","2.121684862"
"05-174","Jardins de la Tamarita (costat caseta jardiners)","JARD LA TAMARITA","9","427785.212531578","4584701.706700001","41.410621045","2.135957580"
"05-175","Jardins de la Tamarita (camí costat Besòs)","JARD LA TAMARITA","10.I","427714.722244242","4584678.317201321","41.410404049","2.135117058"
"05-176","Madrazo","C MADRAZO","147.B","428398.801262930","4583094.379585488","41.396199392","2.143488443"
"05-177","Gleva","C LA GLEVA","19-21","428608.387578564","4583882.509189830","41.403316401","2.145902363"
"05-178","Jardins del Turó del Putget","C MANACOR","14","428367.560900830","4584368.461760678","41.407671757","2.142964014"
"05-179","Jardins del Turó del Putget (jocs infantils)","C MANACOR","7-17","428331.990595795","4584335.601981653","41.407372632","2.142542376"
"05-180","Jardins de Josep Amat","JARD JOSEP AMAT","203","428342.358846977","4584103.511550519","41.405283212","2.142693891"
"05-181","Darrera del centre Cívic","C BISBE SIVILLA","5","427777.058395513","4584159.415939080","41.405736132","2.135924747"
"05-182","Carrer de Josep Garí","C JOSEP GARI","7","427736.896793917","4585272.107933649","41.415754057","2.135311422"
"05-183","","C GANDUXER","29","427940.438471135","4582820.312655146","41.393690039","2.138038598"
"05-184","","C FRANCESC CARBONELL","45","427087.547286145","4582838.219173016","41.393774443","2.127835463"
"05-185","","C ALFONS XII","39-41","428869.874486712","4583422.646500589","41.399197773","2.149084377"
"06-001","Llibertat","C TORRENT DE L'OLLA","26","429835.525869637","4583408.359130562","41.399153935","2.160636732"
"06-002","Domenech","C DOMENECH","10","429700.825556741","4583394.550134551","41.399017797","2.159027109"
"06-003","Corsega","C CORSEGA","373-377","430014.376179402","4583412.807776430","41.399209590","2.162775548"
"06-004","Monistrol","C BAILEN","203","430103.638661820","4583721.067564851","41.401993742","2.163807678"
"06-005","Puigmartí","C TORRENT DE L'OLLA","98","429651.987385356","4583644.910886351","41.401268435","2.158413838"
"06-006","Torrijos","C TORRIJOS","8","429766.168575621","4583778.220219658","41.402479086","2.159764201"
"06-007","Pg Sant Joan","TVRA DE GRÀCIA","230","429999.670398613","4583970.468733969","41.404230964","2.162535159"
"06-008","Sant Antoni Maria Claret","C ROGER DE FLOR","318","430221.190986381","4584002.777097010","41.404541211","2.165181376"
"06-009","Córsega","C SARDENYA","351","430678.572337265","4584087.333761461","41.405342354","2.170643151"
"06-010","Grassot","C CORSEGA","471-477","430451.530105594","4583840.165105905","41.403096581","2.167955508"
"06-011","Pça Raspall (3 grifos)","PL RASPALL","26","429856.397618875","4583634.119314435","41.401189098","2.160860234"
"06-012","Gran de Gràcia / Bonavista","PG GRACIA","126","429631.224317423","4583245.700437931","41.397671074","2.158211872"
"06-013","-","PL GAL·LA PLACIDIA","22","429185.755248132","4583458.574151343","41.399549241","2.152858597"
"06-015","Magdalena / Pça Trilla","PL TRILLA","6-5","429133.228583813","4583907.905233545","41.403591568","2.152177693"
"06-017","Sant Lluis","C SANT LLUIS","16","429692.590224286","4584009.901130821","41.404559320","2.158857134"
"06-019","Encarnació","C PI I MARGALL","41-45","430094.914032993","4584428.798702466","41.408367264","2.163621573"
"06-020","Sant Lluis","C ESCORIAL","15","429962.092195813","4584214.319389115","41.406423965","2.162057412"
"06-021","Pare Lainez","C PARE LAINEZ","41","430295.453538584","4584323.107018129","41.407432752","2.166032854"
"06-022","Torrent de les Flors","C ENCARNACIO","41","429783.471864382","4584207.030737628","41.406342737","2.159921441"
"06-026","Sargelet / Valldoreix","PTGE NAPOLEO","14","428975.773320546","4584562.687424407","41.409475040","2.150217317"
"06-027","Rambla Mercedes","RBLA MERCEDES","13-15","429287.566147893","4584870.835516486","41.412277900","2.153911419"
"06-028","Av Santuari","RBLA MERCEDES","5","429210.225694312","4584826.966039062","41.411875977","2.152991254"
"06-029","Ballester / Agramunt","AV VALLCARCA","53.B","428747.883139136","4584585.249193582","41.409658076","2.147488315"
"06-031","Baró de la Barre","C MORELL","2","428304.658829744","4585424.623854350","41.417178557","2.142086360"
"06-033","Sota antiga Casita Blanca","C BALLESTER","81","428802.272460146","4584484.908627558","41.408759168","2.148150805"
"06-034","Parc Creueta del Coll","PARC CREUETA DEL COLL","38.B","428726.230322337","4585535.450821960","41.418214232","2.147117330"
"06-035","Parc Creueta del Coll","C CASTELLTERÇOL","30-24","428649.369478863","4585439.731253830","41.417345305","2.146208980"
"06-036","Parc Creueta del Coll","PARC CREUETA DEL COLL","38.B","428664.560430342","4585562.361334599","41.418451131","2.146376275"
"06-037","Parc Creueta del Coll","PARC CREUETA DEL COLL","37-47","428640.800638371","4585594.721567316","41.418740477","2.146088170"
"06-039","Gutenberg","C GUTENBERG","13-17","427948.179806120","4585626.776892250","41.418967376","2.137797078"
"06-040","Golgota (pistes petanca)","PG VALL D'HEBRON","59-63","428068.420183076","4585651.916016912","41.419204567","2.139232780"
"06-041","a la dreta de l'escalinata principal","C MERCEDES","19","429336.407157910","4584993.625330036","41.413388116","2.154481409"
"06-042","Av Santuari","RDA MIG","63","429382.774118456","4584584.744359245","41.409709559","2.155083871"
"06-043","Parc darrer Delfos","C ESTEVE TERRADES","14-8","428261.605489953","4584993.423513966","41.413291077","2.141622369"
"06-044","Av Hospital Militar","C ARGENTERA","28","428564.494621672","4584817.510941413","41.411733685","2.145266937"
"06-048","Farigola / Remei","C FARIGOLA","65","428780.937511908","4585153.279800766","41.414777026","2.147816897"
"06-049","Balears","C BALEARS","12","428682.457147641","4585125.480508721","41.414517916","2.146641917"
"06-050","Industria","C INDUSTRIA","35-37","430322.850427291","4583908.626183765","41.403702045","2.166408322"
"06-051","Torrijos","C PUIGMARTI","32","429766.098122563","4583718.670129875","41.401942734","2.159770268"
"06-052","Gran de Gràcia","RBLA PRAT","7","429146.576972541","4583693.314806188","41.401660010","2.152362488"
"06-053","Rabassa","C RABASSA","23","429638.292671718","4584342.642047914","41.407551443","2.158168914"
"06-055","Indústria","C NAPOLS","57-59","430416.771289089","4584002.795615313","41.404558330","2.167521017"
"06-056","Sicília","C ROSSELLO","393-395","430675.320692796","4583871.843459714","41.403401226","2.170628934"
"06-058","","Abdó Terradas","4-12","430005.736509926","4583458.017910803","41.399616029","2.162666977"
"06-059","Pça Sol","PL SOL","20-19","429483.637440197","4583686.312230358","41.401626574","2.156395224"
"06-075","Luis Antunez","PLTA SANT MIQUEL","56","429413.664667363","4583335.892230507","41.398464330","2.155599065"
"06-076","Breton de los Herreros","C GRAN DE GRACIA","177-181","429119.008480066","4583897.155325465","41.403493494","2.152008846"
"06-077","PL. GAL.LA PLACIDIA","PL GAL·LA PLACIDIA","1-7","429206.924645267","4583374.983863153","41.398798239","2.153121591"
"06-078","","PL VIRREINA","6-5","429550.350328155","4584052.452277899","41.404930110","2.157150631"
"06-079","","PL NORD","10-8","429415.701950396","4584293.073667252","41.407085485","2.155511823"
"06-080","C. ESCORIAL","C ESCORIAL","168","429665.095138856","4584661.442325906","41.410425103","2.158452501"
"06-081","SANLLEHY,PL.","PL SANLLEHY","20","429899.788309640","4585030.371095982","41.413768409","2.161217539"
"06-082","Parc Güell (entrada principal)","PARC GÜELL","20.K","428970.618678518","4585268.118532680","41.415828119","2.150072834"
"06-084","","PL VILA DE GRÀCIA","18","429584.416363677","4583524.291217436","41.400176142","2.157619587"
"06-085","Sant Cristofol / Benet Mercader","PL LLIBERTAT","27","429257.515459149","4583471.743625268","41.399674171","2.153715426"
"06-086","Davant del mercat","PL LLIBERTAT","11","429219.795724792","4583514.343977062","41.400054536","2.153259256"
"06-087","Av Vallcarca","C GOMIS","79-81","428485.394539093","4584822.781551690","41.411774120","2.144319974"
"06-088","Parc Creueta del Coll","PARC CREUETA DEL COLL","37-47","428720.730871729","4585609.180981910","41.418877801","2.147042840"
"06-090","Jardins del Doctor Comas i Llaberia","C BARO DE LA BARRE","50","428302.258285673","4585353.213758255","41.416535183","2.142066102"
"06-095","","C MONTMANY","8","429859.829785273","4583918.229719094","41.403748277","2.160868370"
"06-096","John Lennon","PL JOHN LENNON","30","429920.559251159","4583835.689131830","41.403010160","2.161604396"
"06-098","Pça Alfonso Comin (centre plaça)","PL ALFONSO COMIN","1-15","427862.526999029","4585273.416979013","41.415777134","2.136814373"
"06-100","Jardins Menendez Pelayo (petancas)","JARD MENENDEZ Y PELAYO","54","429206.034003910","4584605.645736383","41.409882262","2.152966999"
"06-101","","C GOMIS","23","428218.874625904","4584888.553680698","41.412342743","2.141123575"
"06-102","","TVRA DE GRÀCIA","131","429465.016253660","4583534.072140906","41.400253770","2.156190215"
"06-104","","C PAU FERRAN","31","429131.719818884","4585385.847494909","41.416902680","2.151986551"
"06-109","","BXDA SANT MARIA","14-18","428880.550275172","4585497.599586375","41.417886995","2.148968222"
"06-110","Seneca","C SENECA","1","429578.054363945","4583262.610868212","41.397818725","2.157573924"
"06-111","tocant Ronda de Dalt","C VECIANA","86","428207.762041630","4585868.905302899","41.421171357","2.140874273"
"06-112","Sant Antoni Maria Claret","C BAILEN","228","430021.469308194","4583822.708344214","41.402902036","2.162813011"
"06-115","","PG SANT JOAN","208-206","430056.580503517","4583972.708304245","41.404256088","2.163215688"
"06-117","","PG SANT JOAN","155","430263.059053993","4583740.276381455","41.402180593","2.165712468"
"06-118","","PG SANT JOAN","129-147","430366.518458216","4583640.905447553","41.401294560","2.166961494"
"06-119","Parc Güell","C OLOT","24","429354.917865095","4585082.785323659","41.414192772","2.154692463"
"06-120","Parc Güell (al camí sobre la plaça central)","PARC GÜELL","12","429133.447338443","4585058.666973621","41.413956049","2.152045548"
"06-121","Terol - Ramon i Cajal","PL REVOLUCIO DE SETEMBRE 1868","1","429651.668453705","4583785.441101993","41.402534111","2.158393692"
"06-122","al costat de la gasolinera","AV VALLCARCA","235-237","428176.320799357","4585711.215290183","41.419748301","2.140516788"
"06-123","Pça Grau Miró","C PORTELL","2","429102.961905940","4585667.568165394","41.419437487","2.151609448"
"06-124","Jaume Cascalls","C JAUME CASCALLS","22-20","429007.800571130","4585510.648638458","41.418015775","2.150489236"
"06-125","","PL JOANIC","65","429999.161498241","4584115.108956840","41.405533642","2.162512343"
"06-126","Jardins del Mestre Balcells","JARD MESTRE BALCELLS","59.I","429284.192307470","4584366.754779885","41.407737544","2.153929963"
"06-127","Av Vallcarca","C GOMIS","20-14","428384.204628980","4584855.232371314","41.412057381","2.143105515"
"06-128","","C CAMELIES","42.B","429889.556866882","4584842.890891075","41.412078953","2.161116853"
"06-129","Secretari Coloma","RDA MIG","1","429825.297093457","4584885.721444930","41.412459103","2.160343086"
"06-130","","RDA MIG","125-127","429754.746920616","4584877.351969419","41.412377559","2.159499995"
"06-131","Parc Güell","PARC GÜELL","49","429178.549363353","4585316.047026397","41.416278144","2.152555029"
"06-132","Parc Güell","AV COLL DEL PORTELL","95-99","428982.406504393","4584979.818004634","41.413232555","2.150247714"
"06-135","Jardins Manel Blancafort","AV REPUBLICA ARGENTINA","2.B","428492.074282752","4584787.721447774","41.411458943","2.144404033"
"06-136","front nº 9-10","PL DIAMANT","3","429451.029514699","4583965.692902347","41.404139991","2.155972607"
"06-137","Parc Güell (zona merendero)","PARC GÜELL","23.B","429181.307928016","4585126.396711417","41.414570282","2.152610236"
"06-138","Sicília entre Indústria i Córsega","JARD ANTONI PUIGVERT","62-54","430529.071520350","4584010.354776628","41.404636125","2.168863550"
"06-139","","C MARE DE DEU DEL COLL","90.B","428705.864910012","4584826.599878718","41.411828098","2.146957195"
"06-140","","PL LESSEPS","7-6","428950.590709075","4584224.497103889","41.406426868","2.149955752"
"06-142","Lesseps / Torrent de l'Olla","PL LESSEPS","12","429050.341625245","4584324.646496298","41.407337684","2.151137318"
"06-143","General Mitre / Av Vallcarca","PL LESSEPS","19","428980.141871115","4584371.257101307","41.407751289","2.150292046"
"06-144","Av Vallcarca / General Mitre","AV VALLCARCA","1","428929.051679514","4584356.467467840","41.407613569","2.149682586"
"06-145","Riera de Vallcarca / Lesseps","PL LESSEPS","22-21","428912.791214849","4584298.687504077","41.407091730","2.149494847"
"06-146","Travessera de Gràcia","AV PRINCEP D'ASTURIES","68-66","428975.340250721","4584159.196816495","41.405840921","2.150259490"
